Borough;City;Neighbourhood;Street;available;building_material;building_type;construction_status;district;equipment_dishwasher;equipment_fridge;equipment_oven;equipment_stove;equipment_tv;equipment_washing_machine;extras_air_conditioning;extras_balcony;extras_basement;extras_furniture;extras_garage;extras_garden;extras_lift;extras_separate_kitchen;extras_swimming_pool;extras_terrace;extras_two_storey;extras_usable_room;heating;latitude;link;longitude;market;media_cable-television;media_internet;media_phone;orig_street;ownership;page_views;price;price_currency;publicated;rent;rooms;security_alarm;security_anti_burglary_door;security_closed_area;security_entryphone;security_monitoring;security_roller_shutters;security_security;surface;updated;window;year_of_construction;Neighbourhood_filled;appartment_floor_no;building_floor_no;price_per_sqm;age;age_mean;age_mode;age_median;age_random;Id
wola;warszawa;mirów;ogrodowa;.;brick;tenement;ready_to_use;.;0;0;0;0;0;0;0;0;1;0;0;0;1;0;0;0;0;0;urban;52.2395214;https://www.otodom.pl/oferta/2-pokojowe-mieszkanie-sprzedaz-warszawa-ogrodowa-ID3JsPG.html;20.9924511;secondary;1;1;0;True;full_ownership;998;535000.0;PLN;15;780.0;2;0;0;0;0;0;0;0;49;1;plastic;1950;mirów;1;5;10918.367346938776;69.0;69.0;69.0;69.0;69.0;55164604
ursynów;warszawa;kabaty;relaksowa;.;missing;block;missing;.;0;0;0;0;0;0;0;1;0;0;0;0;0;0;0;0;0;0;missing;52.13785;https://www.otodom.pl/oferta/mieszkanie-72-90-m-warszawa-ID3LqXS.html;21.02912;secondary;0;0;0;False;cooperative_ownership;147;599000.0;PLN;3;.;3;0;0;0;0;0;0;0;73;3;missing;2000;kabaty;2;3;8205.479452054795;19.0;19.0;19.0;19.0;19.0;55634080
praga pó³noc;warszawa;.;.;.;missing;tenement;missing;.;0;0;0;0;0;0;0;0;0;0;0;0;1;0;0;0;0;0;missing;52.2633;https://www.otodom.pl/oferta/mieszkanie-64-28-m-warszawa-ID3KoEo.html;21.02832;primary;0;0;0;False;full_ownership;312;587928.0;PLN;15;.;3;0;0;0;1;0;0;0;64;6;missing;2020;praga pó³noc;3;6;9186.375;0.0;0.0;0.0;0.0;0.0;55386856
ursus;warszawa;skorosze;dzieci warszawy;.;brick;apartment;ready_to_use;.;0;0;0;0;0;0;0;1;0;0;1;0;0;0;0;0;0;0;gas;52.191683;https://www.otodom.pl/oferta/mieszkanie-40-90-m-warszawa-ID3KNVv.html;20.908638;secondary;1;1;0;True;full_ownership;365;339000.0;PLN;12;250.0;1;0;0;0;0;0;0;0;41;5;wooden;2001;skorosze;1;2;8268.292682926829;18.0;18.0;18.0;18.0;18.0;55484080
œródmieœcie;warszawa;œródmieœcie po³udniowe;aleja niepodleg³oœci;2018-08-16;brick;tenement;to_renovation;.;1;1;1;1;0;0;0;1;1;0;0;0;1;1;0;0;0;0;urban;52.218573122834385;https://www.otodom.pl/oferta/klimatyczny-apartament-w-przedwojennej-kamienicy-ID3K2r6.html;21.004537528991694;secondary;1;1;1;False;cooperative_ownership;1091;2200000.0;PLN;15;900.0;4;0;0;0;1;0;0;0;124;3;plastic;1923;œródmieœcie po³udniowe;3;4;17741.935483870966;96.0;96.0;96.0;96.0;96.0;55301464
wilanów;warszawa;wilanów wysoki;na³êczowska;.;other;block;ready_to_use;.;0;0;0;0;0;0;0;1;1;0;0;0;0;1;0;0;0;0;missing;52.175693952705444;https://www.otodom.pl/oferta/3-pokojowy-apartament-na-mokotowie-ID3Ksje.html;21.062904092559815;secondary;0;0;0;True;missing;299;798490.0;PLN;15;.;3;0;0;1;1;1;0;0;104;15;missing;.;wilanów wysoki;2;3;7677.788461538462;.;23.0;1.0;23.0;7.0;55400920
targówek;warszawa;bródno;palestyñska;.;brick;block;ready_to_use;.;0;0;0;0;0;0;0;0;0;0;0;0;0;1;0;0;0;0;urban;52.23614;https://www.otodom.pl/oferta/polecam-ID3JUS0.html;21.00817;secondary;1;1;1;True;cooperative_ownership_with_mortgage_register;408;368000.0;PLN;15;.;2;0;0;0;0;0;0;0;55;15;missing;1999;bródno;2;3;6690.909090909091;20.0;20.0;20.0;20.0;20.0;55272380
bia³o³êka;warszawa;kobia³ka;ostródzka;.;missing;block;to_completion;.;0;0;0;0;0;0;0;0;0;0;1;0;1;0;0;0;0;0;missing;52.3258294;https://www.otodom.pl/oferta/3-pokojowe-mieszkanie-z-oddzielna-kuchnia-ID3KGM4.html;21.0485453;secondary;0;0;0;True;full_ownership;148;374000.0;PLN;14;.;3;0;1;1;1;1;0;0;69;7;missing;2018;kobia³ka;1;2;5420.289855072464;1.0;1.0;1.0;1.0;1.0;55456524
wola;warszawa;.;.;.;missing;apartment;missing;.;0;0;0;0;0;0;0;1;0;0;0;0;1;0;0;0;0;0;urban;52.235895;https://www.otodom.pl/oferta/w-pelni-wyposazone-w-wysokim-standardzie-metro-ID3JONe.html;20.95925;secondary;0;0;0;False;missing;400;537000.0;PLN;15;220.0;2;0;0;0;0;0;0;0;42;15;plastic;2012;wola;7;12;12785.714285714286;7.0;7.0;7.0;7.0;7.0;55249020
ochota;warszawa;.;.;.;missing;apartment;to_completion;.;0;0;0;0;0;0;0;1;0;0;1;0;1;0;0;0;0;0;urban;52.20997;https://www.otodom.pl/oferta/nowosc-ustawna-kawalerka-29m2-balkon-skm-wkd-ID3K4CY.html;20.96727;primary;1;1;0;False;full_ownership;334;271700.0;PLN;15;.;1;0;0;1;1;1;0;0;29;15;plastic;.;ochota;5;8;9368.965517241379;1.0;1.0;1.0;1.0;1.0;55309888
ursynów;warszawa;natolin;.;2018-07-18;missing;apartment;missing;.;0;0;0;0;0;0;0;1;1;0;0;0;1;0;0;0;0;0;urban;52.1442234;https://www.otodom.pl/oferta/apartament-na-sengera-blisko-metro-ID3JlXi.html;21.0657378;secondary;0;0;0;False;full_ownership;543;820000.0;PLN;15;900.0;6;0;0;0;1;1;0;0;125;8;plastic;1993;natolin;4;5;6560.0;26.0;26.0;26.0;26.0;26.0;55138168
bielany;warszawa;piaski;zgrupowania ak ¿mija;.;breezeblock;apartment;ready_to_use;.;0;0;0;0;0;0;0;1;0;0;0;0;0;0;0;0;0;0;other;52.23614;https://www.otodom.pl/oferta/mieszkanie-115-20-m-warszawa-ID3Ixg8.html;21.00817;secondary;0;0;0;True;cooperative_ownership;454;769000.0;PLN;15;.;4;0;0;1;1;0;0;0;115;1;plastic;2000;piaski;3;4;6686.95652173913;19.0;19.0;19.0;19.0;19.0;54943292
praga pó³noc;warszawa;.;.;.;missing;block;missing;.;0;0;0;0;0;0;0;0;0;0;0;0;1;0;0;1;0;0;missing;52.2633;https://www.otodom.pl/oferta/mieszkanie-43-60-m-warszawa-ID3I3RK.html;21.02832;primary;0;0;0;False;full_ownership;201;500000.0;PLN;15;.;2;0;0;0;1;0;0;0;44;6;missing;2020;praga pó³noc;1;6;11363.636363636364;0.0;0.0;0.0;0.0;0.0;54830304
ochota;warszawa;szczêœliwice;budki szczêœliwickie;.;silikat;block;missing;.;0;0;0;0;0;0;0;1;0;0;0;0;1;0;0;0;0;0;urban;52.20997;https://www.otodom.pl/oferta/ostatnie-pietro-taras-ID3KrOc.html;20.96727;primary;0;0;0;False;full_ownership;315;1262918.0;PLN;15;.;5;0;0;0;1;1;0;0;112;12;missing;2019;szczêœliwice;3;3;11276.05357142857;0.0;0.0;0.0;0.0;0.0;55398996
bemowo;warszawa;jelonki pó³nocne;gen. meriana c. coopera;.;missing;block;to_completion;.;0;0;0;0;0;0;0;1;0;0;1;0;1;0;0;0;0;0;missing;52.23824636958341;https://www.otodom.pl/oferta/mieszkanie-dwupokojowe-na-bemowie-ID3KX6Q.html;20.89285767354126;primary;0;0;0;True;missing;232;418480.0;PLN;10;.;2;0;0;0;0;0;0;0;52;5;missing;.;jelonki pó³nocne;3;missing;8047.692307692308;1.0;1.0;1.0;1.0;1.0;55519316
œródmieœcie;warszawa;solec;okr¹g;.;brick;tenement;missing;.;0;0;0;0;0;0;0;0;0;0;0;0;1;0;0;0;0;0;missing;52.2302551;https://www.otodom.pl/oferta/mieszkanie-120-m-warszawa-ID3Laas.html;21.036335;secondary;0;0;0;True;missing;164;1649000.0;PLN;6;900.0;3;0;0;0;0;0;0;0;120;6;missing;1928;solec;groundfloor;4;13741.666666666666;91.0;91.0;91.0;91.0;91.0;55569512
ursus;warszawa;skorosze;poczty gdañskiej;.;missing;missing;missing;.;0;0;0;0;0;0;0;0;0;0;0;0;0;0;0;0;0;0;missing;52.1982874;https://www.otodom.pl/oferta/mieszkanie-59-08-m-warszawa-ID3KPQc.html;20.8985509;secondary;0;0;0;True;missing;221;472850.0;PLN;11;.;3;0;0;0;0;0;0;0;59;7;missing;.;skorosze;groundfloor;missing;8014.406779661017;.;3.6666666666666665;8.0;1.0;10.0;55491376
bemowo;warszawa;bemowo-lotnisko;widawska;.;missing;block;ready_to_use;.;0;0;0;0;0;0;0;1;0;0;0;0;1;0;0;0;0;0;urban;52.253166;https://www.otodom.pl/oferta/dobra-oferta-trzech-pokoi-na-bemowie-ID3K9Fa.html;20.92401;secondary;1;1;0;True;full_ownership;686;525000.0;PLN;15;500.0;3;0;1;0;0;0;0;0;70;12;plastic;2002;bemowo-lotnisko;7;8;7500.0;17.0;17.0;17.0;17.0;17.0;55329244
bielany;warszawa;.;.;.;concrete_plate;block;missing;.;0;0;0;0;0;0;0;0;1;0;0;0;1;0;0;0;0;0;urban;52.28161;https://www.otodom.pl/oferta/3-pok-bielany-za-gotowke-ID3HJk0.html;20.97422;secondary;0;0;0;False;cooperative_ownership;403;430000.0;PLN;15;.;3;0;0;0;1;0;0;0;58;6;missing;.;bielany;10;15;7413.793103448276;.;45.06976744186046;7.0;44.0;39.0;54751332
bielany;warszawa;chomiczówka;josepha conrada;.;concrete_plate;block;ready_to_use;.;0;0;0;0;0;0;0;1;1;0;0;0;1;1;0;0;0;0;missing;52.2758993;https://www.otodom.pl/oferta/bielany-3pokojowe-do-zamieszkania-ID3Ls0v.html;20.9232479;secondary;1;1;0;True;cooperative_ownership_with_mortgage_register;140;439000.0;PLN;2;820.0;3;0;0;0;0;0;0;0;57;2;plastic;1978;chomiczówka;1;15;7701.754385964912;41.0;41.0;41.0;41.0;41.0;55638088
bia³o³êka;warszawa;tarchomin;myœliborska;.;brick;block;ready_to_use;.;0;0;0;0;0;0;0;1;0;0;0;0;1;1;0;0;0;0;urban;52.319128;https://www.otodom.pl/oferta/2-pok-mozliwe-3-swietna-lokalizacja-bialoleka-ID3Kkok.html;20.958647;secondary;1;1;1;True;cooperative_ownership_with_mortgage_register;488;450000.0;PLN;15;497.0;2;0;0;0;0;1;0;0;59;4;plastic;2009;tarchomin;7;8;7627.118644067797;10.0;10.0;10.0;10.0;10.0;55370484
mokotów;warszawa;stary mokotów;huculska;.;brick;missing;to_completion;.;0;0;0;0;0;0;0;1;0;0;1;0;1;0;0;0;0;0;missing;52.2011444;https://www.otodom.pl/oferta/mieszkanie-90-28-m-warszawa-ID3Lk3u.html;21.0280057;primary;1;1;0;True;full_ownership;122;1128500.0;PLN;4;811.0;2;0;0;0;0;0;0;0;90;4;wooden;2017;stary mokotów;1;6;12538.888888888889;2.0;2.0;2.0;2.0;2.0;55607520
weso³a;warszawa;stara mi³osna;dworkowa;2018-08-02;missing;row_house;missing;.;0;0;0;0;0;0;0;1;0;0;1;1;0;0;0;0;1;1;missing;52.21917;https://www.otodom.pl/oferta/mieszkanie-dwupoziomowe-z-ogrodkiem-i-garazem-ID3JhtG.html;21.2352;secondary;1;1;0;True;full_ownership;1999;510000.0;PLN;15;260.0;3;0;1;1;1;0;0;0;106;1;missing;2008;stara mi³osna;groundfloor;2;4811.320754716981;11.0;11.0;11.0;11.0;11.0;55120956
wola;warszawa;m³ynów;œw. stanis³awa;.;missing;apartment;missing;.;0;0;0;0;0;0;0;1;0;0;1;0;1;0;0;0;0;0;urban;52.2463922;https://www.otodom.pl/oferta/mieszkanie-62-m-warszawa-ID3LjCU.html;20.9642937;secondary;0;0;0;True;full_ownership;119;620000.0;PLN;4;.;2;0;0;1;1;0;0;0;62;4;plastic;2016;m³ynów;5;6;10000.0;3.0;3.0;3.0;3.0;3.0;55605872
targówek;warszawa;bródno;chodecka;.;concrete_plate;block;to_renovation;.;0;0;0;0;0;0;0;1;0;0;0;0;0;0;0;0;0;0;urban;52.309999237061;https://www.otodom.pl/oferta/mieszkanie-47-m-warszawa-ID3L1G8.html;21.050000915527;secondary;1;0;1;True;missing;265;325000.0;PLN;7;.;3;0;0;0;0;0;0;0;47;3;missing;1970;bródno;2;4;6914.893617021276;49.0;49.0;49.0;49.0;49.0;55536880
wilanów;warszawa;b³onia wilanowskie;rzeczypospolitej;.;reinforced_concrete;block;to_completion;.;1;1;1;1;0;0;1;1;0;1;1;0;1;0;0;1;0;0;urban;52.165783746866936;https://www.otodom.pl/oferta/mieszkanie-warszawa-wilanow-ul-rzeczypospolitej-ID3krkY.html;21.069915855541993;primary;1;1;0;False;missing;260;1230000.0;PLN;15;.;4;0;0;1;1;1;0;0;104;13;plastic;2017;b³onia wilanowskie;2;4;11826.923076923076;2.0;2.0;2.0;2.0;2.0;49200656
bia³o³êka;warszawa;szamocin;p³ochociñska;.;other;apartment;to_completion;.;0;0;0;0;0;0;0;1;0;0;1;0;0;0;0;0;1;1;missing;52.32899;https://www.otodom.pl/oferta/dwupoziomowe-mieszkanie-w-rewelacyjnej-cenie-ID3JS1V.html;21.00768;primary;0;0;0;True;full_ownership;406;468700.0;PLN;15;.;5;0;1;1;1;0;0;0;92;15;missing;2017;szamocin;3;4;5094.565217391304;2.0;2.0;2.0;2.0;2.0;55261464
wilanów;warszawa;.;.;.;missing;apartment;missing;.;0;0;0;0;0;0;0;1;0;0;1;0;1;0;0;0;0;0;missing;52.15935;https://www.otodom.pl/oferta/80-mkw-przestrzeni-wygody-potrzebnej-ci-do-zycia-ID3JPIU.html;21.07775;secondary;0;1;0;False;full_ownership;680;749000.0;PLN;15;490.0;3;0;0;0;0;0;0;0;80;15;wooden;2011;wilanów;2;4;9362.5;8.0;8.0;8.0;8.0;8.0;55252596
praga po³udnie;warszawa;grochów;.;.;missing;missing;missing;.;0;0;0;0;0;0;0;1;0;0;1;0;1;0;0;0;0;0;urban;52.23614;https://www.otodom.pl/oferta/3-pokoje-alarm-winda-garaz-podziemny-ID3Ja4U.html;21.00817;secondary;1;1;1;False;full_ownership;635;550000.0;PLN;15;650.0;3;0;0;0;0;1;0;0;73;11;plastic;2009;grochów;1;3;7534.246575342466;10.0;10.0;10.0;10.0;10.0;55092512
bielany;warszawa;.;.;.;concrete_plate;block;to_renovation;.;0;0;0;0;0;0;0;0;1;0;0;0;1;0;0;0;0;0;urban;52.29359;https://www.otodom.pl/oferta/przytulne-2-osobne-pokoje-do-wlasnej-aranzacji-ID3IU4s.html;20.92645;secondary;1;1;1;False;missing;516;285000.0;PLN;15;330.0;2;0;0;0;0;0;0;0;34;15;plastic;1976;bielany;groundfloor;10;8382.35294117647;43.0;43.0;43.0;43.0;43.0;55030980
w³ochy;warszawa;stare w³ochy;potrzebna;.;other;apartment;to_completion;.;0;0;0;0;0;0;0;0;0;0;1;0;1;0;0;1;0;0;missing;52.2124006;https://www.otodom.pl/oferta/dojazd-do-centrum-w-12-minut-piekna-okolica-ID3KW9y.html;20.9217771;primary;0;0;0;True;full_ownership;270;999000.0;PLN;10;.;4;0;1;1;1;1;0;0;126;9;missing;.;stare w³ochy;5;5;7928.571428571428;1.0;1.0;1.0;1.0;1.0;55511796
mokotów;warszawa;.;.;.;missing;missing;to_completion;.;0;0;0;0;0;0;0;0;0;0;0;0;1;0;0;0;0;0;missing;52.17745064;https://www.otodom.pl/oferta/mokotow-dla-ciebie-lub-pod-inwestycje-ID3Hq20.html;20.99444032;primary;0;0;0;False;full_ownership;6324;461895.0;PLN;15;.;2;0;0;0;0;0;0;0;56;9;missing;2019;mokotów;5;7;8248.125;0.0;0.0;0.0;0.0;0.0;54677180
wola;warszawa;.;.;.;concrete_plate;block;to_renovation;.;0;0;0;0;0;0;0;1;0;0;0;0;1;0;0;0;0;0;urban;52.23338;https://www.otodom.pl/oferta/kawalerka-27-m2-w-centrum-ID3JM0M.html;20.95718;secondary;0;0;0;False;cooperative_ownership;413;330000.0;PLN;15;.;1;0;0;0;0;1;0;0;27;15;missing;1974;wola;gt10;15;12222.222222222223;45.0;45.0;45.0;45.0;45.0;55238328
bia³o³êka;warszawa;grodzisk;.;.;missing;apartment;to_completion;.;0;0;0;0;0;0;0;0;0;0;0;0;0;0;0;1;0;0;missing;52.3326536;https://www.otodom.pl/oferta/cicha-i-spokojna-okolica-super-cena-ID3Lpfm.html;21.055613;primary;0;0;0;False;missing;89;233294.0;PLN;3;.;2;0;0;0;1;0;0;0;35;3;missing;.;grodzisk;groundfloor;2;6665.542857142857;1.0;1.0;1.0;1.0;1.0;55627476
mokotów;warszawa;s³u¿ewiec;cybernetyki;.;missing;apartment;to_completion;.;0;0;0;0;0;0;0;1;0;0;1;0;1;0;0;0;0;0;missing;52.1764506;https://www.otodom.pl/oferta/dwustronne-mieszkanie-w-przepieknej-okolicy-ID3LnFm.html;20.9935391;primary;0;0;0;True;missing;90;443061.0;PLN;3;.;3;0;0;0;1;0;0;0;52;3;missing;.;s³u¿ewiec;1;7;8520.403846153846;1.0;1.0;1.0;1.0;1.0;55621400
œródmieœcie;warszawa;muranów;s³omiñskiego zygmunta;.;brick;apartment;ready_to_use;.;0;0;0;0;0;0;0;1;0;0;1;0;1;0;0;0;0;0;urban;52.2566964;https://www.otodom.pl/oferta/mieszkanie-63-m-warszawa-ID3IgAk.html;20.9920342;secondary;0;0;0;False;missing;347;840000.0;PLN;15;.;2;0;0;0;0;0;0;0;63;3;missing;2005;muranów;5;7;13333.333333333334;14.0;14.0;14.0;14.0;14.0;54879196
bemowo;warszawa;fort bema;ksiêcia boles³awa;2018-08-01;brick;apartment;ready_to_use;.;1;1;1;1;0;0;0;1;0;1;1;0;1;0;0;1;0;0;urban;52.253732249573716;https://www.otodom.pl/oferta/ksiecia-boleslawa-obroncow-tobruku-z-wid-na-park-ID3yXuf.html;20.935276762084957;secondary;1;1;1;False;full_ownership;4152;1190000.0;PLN;15;750.0;3;1;1;1;1;1;1;0;90;5;wooden;2006;fort bema;4;5;13222.222222222223;13.0;13.0;13.0;13.0;13.0;52660831
praga po³udnie;warszawa;goc³aw;poligonowa;.;missing;missing;missing;.;1;1;1;1;0;1;0;1;1;1;1;0;1;1;0;1;0;1;missing;52.24168;https://www.otodom.pl/oferta/wyjatkowy-taras-piekne-zachody-slonca-garaz-ID3JLrq.html;21.08406;secondary;1;1;1;True;full_ownership;1931;830000.0;PLN;15;1020.0;3;0;1;1;1;1;1;0;95;2;plastic;2001;goc³aw;7;missing;8736.842105263158;18.0;18.0;18.0;18.0;18.0;55236136
praga pó³noc;warszawa;szmulowizna;siedlecka;2018-08-31;brick;tenement;ready_to_use;.;0;0;0;0;0;0;0;0;1;1;0;0;0;1;0;0;0;0;urban;52.25940893022624;https://www.otodom.pl/oferta/3-pokoje-po-gruntownym-remoncie-wlasnosc-z-kw-ID3KRy0.html;21.060788966687007;secondary;1;1;0;True;full_ownership;1841;399000.0;PLN;11;550.0;3;0;1;1;1;0;0;0;62;5;plastic;1955;szmulowizna;groundfloor;3;6435.4838709677415;64.0;64.0;64.0;64.0;64.0;55497936
bia³o³êka;warszawa;¿erañ;morelowa;.;reinforced_concrete;block;to_completion;.;0;0;0;0;0;0;0;1;0;0;1;0;1;0;0;0;0;1;urban;52.3068501;https://www.otodom.pl/oferta/nowa-inwestycja-ustawne-m3-z-balkonem-7m2-ID3LhS8.html;20.9876096;primary;1;1;0;True;full_ownership;122;389800.0;PLN;4;.;3;0;0;1;1;1;0;0;59;4;plastic;.;¿erañ;3;5;6606.779661016949;1.0;1.0;1.0;1.0;1.0;55599128
bia³o³êka;warszawa;dworska;skarbka z gór;.;missing;block;missing;.;0;0;0;0;0;0;0;1;1;0;0;0;0;0;0;0;0;0;urban;52.316954;https://www.otodom.pl/oferta/mieszkanie-67-m-warszawa-ID3L9UI.html;21.0592891;secondary;0;0;0;True;full_ownership;136;469000.0;PLN;6;500.0;4;0;0;1;1;0;0;0;67;6;plastic;2006;dworska;2;3;7000.0;13.0;13.0;13.0;13.0;13.0;55568536
wola;warszawa;mirów;grzybowska;2018-07-02;concrete_plate;block;missing;.;0;0;0;0;0;0;0;0;1;0;1;0;1;0;0;0;0;0;urban;52.23578;https://www.otodom.pl/oferta/3-pokojowe-mieszkanie-w-samym-centrum-po-remoncie-ID3HflG.html;20.99914;secondary;1;1;0;True;cooperative_ownership;2367;570000.0;PLN;15;.;3;0;0;0;1;1;0;0;48;7;missing;1970;mirów;gt10;15;11875.0;49.0;49.0;49.0;49.0;49.0;54636116
w³ochy;warszawa;stare w³ochy;.;2019-01-01;missing;block;ready_to_use;.;1;1;1;1;0;1;1;1;0;1;1;0;0;0;0;0;0;0;gas;52.20148;https://www.otodom.pl/oferta/stare-wlochy-3-pokoje-do-zamieszkania-klimatyzacja-ID3K0UM.html;20.9249;secondary;0;1;0;False;full_ownership;872;705000.0;PLN;15;560.0;3;0;1;1;1;1;0;0;68;11;plastic;2003;stare w³ochy;2;3;10367.64705882353;16.0;16.0;16.0;16.0;16.0;55295616
bia³o³êka;warszawa;tarchomin;strumykowa;.;missing;block;ready_to_use;.;0;0;0;0;0;0;0;1;0;0;0;0;1;0;0;0;0;0;urban;52.3296983;https://www.otodom.pl/oferta/dwustronne-mieszkanie-na-srumykowej-ID3KObq.html;20.9455248;secondary;1;1;0;True;full_ownership;334;490000.0;PLN;12;550.0;3;0;0;0;0;1;0;0;74;7;plastic;2003;tarchomin;1;3;6621.621621621622;16.0;16.0;16.0;16.0;16.0;55485004
ochota;warszawa;.;.;.;missing;missing;missing;.;0;0;0;0;0;0;0;1;0;0;0;0;1;0;0;0;0;0;missing;52.20997;https://www.otodom.pl/oferta/widna-kuchnia-3pokoje-51m2-balkon-ID3L5G4.html;20.96727;primary;0;0;0;False;full_ownership;158;416302.0;PLN;6;.;3;0;0;0;1;0;0;0;51;6;missing;2020;ochota;4;8;8162.78431372549;0.0;0.0;0.0;0.0;0.0;55552252
ursynów;warszawa;stary imielin;rybitwy;2018-04-25;brick;apartment;ready_to_use;.;1;1;1;1;0;1;0;0;0;0;1;0;1;0;0;1;0;0;urban;52.13785;https://www.otodom.pl/oferta/mieszkanie-3-pokojowe-80m2-z-tarasem-o-pow-60m2-ID3D3c0.html;21.02912;secondary;1;1;1;True;full_ownership;3618;869000.0;PLN;15;740.0;3;1;0;1;1;1;0;0;81;3;plastic;2010;stary imielin;3;3;10728.395061728395;9.0;9.0;9.0;9.0;9.0;53636076
mokotów;warszawa;.;.;.;missing;apartment;missing;.;0;0;0;0;0;0;0;1;0;0;1;0;1;0;0;0;0;0;urban;52.176774;https://www.otodom.pl/oferta/mokotow-3-pokoje-55m2-450-tys-zl-ID3KyXm.html;20.99937;primary;1;0;1;False;full_ownership;1121;450000.0;PLN;15;.;3;0;0;1;0;0;0;0;55;15;plastic;2018;mokotów;2;7;8181.818181818182;1.0;1.0;1.0;1.0;1.0;55426472
mokotów;warszawa;s³u¿ewiec;k³obucka;.;missing;block;to_completion;.;0;0;0;0;0;0;0;0;0;0;1;0;1;0;0;0;0;1;urban;52.1636329;https://www.otodom.pl/oferta/2-pokoje-ogrod-z-widokiem-na-jeziorko-ID3KIAM.html;20.9922648;secondary;0;0;0;True;missing;274;370000.0;PLN;13;.;2;0;0;0;0;0;0;0;45;13;plastic;2020;s³u¿ewiec;groundfloor;4;8222.222222222223;0.0;0.0;0.0;0.0;0.0;55463512
wawer;warszawa;.;.;.;missing;house;to_completion;.;0;0;0;0;0;0;0;0;0;0;1;1;0;0;0;0;0;1;gas;52.16464236506994;https://www.otodom.pl/oferta/kameralne-bezczynszowe-z-ogrodem-ID3KUPy.html;21.215995502929683;primary;0;0;0;False;full_ownership;711;359000.0;PLN;10;.;3;0;0;1;0;0;0;0;60;4;plastic;2019;wawer;groundfloor;1;5983.333333333333;0.0;0.0;0.0;0.0;0.0;55510556
bia³o³êka;warszawa;szamocin;p³ochociñska;.;missing;block;to_completion;.;0;0;0;0;0;0;0;1;0;0;1;0;0;0;0;0;1;0;urban;52.3365764;https://www.otodom.pl/oferta/oddane-dwupoziomowe-m5-107m2-dwa-balkony-ID3LnFC.html;21.0293071;primary;1;1;0;True;missing;103;537300.0;PLN;3;.;5;0;0;1;1;1;0;0;107;3;plastic;.;szamocin;3;4;5021.4953271028035;1.0;1.0;1.0;1.0;1.0;55621416
praga po³udnie;warszawa;goc³aw;.;.;missing;missing;missing;.;0;0;0;0;0;0;0;0;0;0;0;0;0;0;0;0;0;0;missing;52.23161;https://www.otodom.pl/oferta/jasne-ogrodek-loggia-tuz-przy-balatonie-ID3ITWK.html;21.08525;secondary;0;0;0;False;full_ownership;568;699000.0;PLN;15;.;3;0;0;0;0;0;0;0;72;15;missing;2016;goc³aw;groundfloor;8;9708.333333333334;3.0;3.0;3.0;3.0;3.0;55030440
praga po³udnie;warszawa;goc³aw;.;.;missing;missing;missing;.;0;0;0;0;0;0;0;1;0;0;0;1;1;0;0;0;0;0;missing;52.23;https://www.otodom.pl/oferta/goclaw-mieszkanie-2-pokojowe-ID3IcF2.html;21.08;primary;0;0;0;False;full_ownership;1040;349245.0;PLN;15;320.0;2;0;0;0;0;1;0;0;45;15;wooden;2019;goc³aw;groundfloor;6;7761.0;0.0;0.0;0.0;0.0;0.0;54864112
œródmieœcie;warszawa;œródmieœcie pó³nocne;królewska;.;concrete_plate;missing;to_renovation;.;0;0;0;0;0;0;0;0;0;0;0;0;1;0;0;0;0;0;urban;52.238025;https://www.otodom.pl/oferta/kawalerka-w-centrum-miasta-od-zaraz-ID3Loti.html;21.0075571;secondary;1;1;1;True;cooperative_ownership;160;320000.0;PLN;3;.;1;0;0;0;0;0;0;0;27;2;missing;1970;œródmieœcie pó³nocne;7;11;11851.851851851852;49.0;49.0;49.0;49.0;49.0;55624496
praga po³udnie;warszawa;.;.;.;missing;missing;missing;.;0;0;0;0;0;0;0;0;0;0;0;0;0;0;0;0;0;0;missing;52.24168;https://www.otodom.pl/oferta/dwa-pokoje-obok-stadionu-narodowego-bez-prowizji-ID3KhmI.html;21.08406;primary;1;1;1;False;missing;237;457000.0;PLN;15;.;2;0;0;0;0;0;0;0;37;12;missing;2019;praga po³udnie;groundfloor;4;12351.351351351352;0.0;0.0;0.0;0.0;0.0;55358852
wola;warszawa;czyste;.;.;missing;apartment;missing;.;0;0;0;0;0;0;0;1;0;0;1;0;1;0;0;0;0;0;missing;52.2333751;https://www.otodom.pl/oferta/nowoczesna-inwestycja-na-woli-bez-prowizji-ID3KeW6.html;20.9571835;secondary;0;0;0;False;missing;1074;404127.0;PLN;15;.;3;0;0;0;1;0;0;0;49;15;plastic;2018;czyste;4;8;8247.489795918367;1.0;1.0;1.0;1.0;1.0;55349452
praga pó³noc;warszawa;stara praga;wrzesiñska;.;missing;block;missing;.;0;0;0;0;0;0;0;1;0;0;0;0;0;0;0;0;0;0;missing;52.2498591;https://www.otodom.pl/oferta/nieopodal-metra-ID3LqVs.html;21.034932;secondary;0;0;0;True;missing;101;320600.0;PLN;3;.;1;0;0;0;0;0;0;0;28;3;plastic;2020;stara praga;4;7;11450.0;0.0;0.0;0.0;0.0;0.0;55633992
targówek;warszawa;zacisze;woliñska;.;missing;block;missing;.;0;0;0;0;0;0;0;1;1;0;1;0;1;0;0;0;1;0;urban;52.2889425;https://www.otodom.pl/oferta/mieszkanie-133-m-warszawa-ID3L9U8.html;21.0849586;secondary;0;0;0;True;full_ownership;140;950000.0;PLN;6;.;4;0;0;1;1;0;0;0;133;6;plastic;2011;zacisze;4;4;7142.857142857143;8.0;8.0;8.0;8.0;8.0;55568500
bia³o³êka;warszawa;kobia³ka;ostródzka;.;brick;block;to_completion;.;0;0;0;0;0;0;0;1;0;0;1;0;1;0;0;0;0;0;missing;52.3257515;https://www.otodom.pl/oferta/gotowe-zielona-okolica-latwy-dojazd-do-metra-ID3LoX6.html;21.0485632;primary;1;1;0;True;full_ownership;146;244000.0;PLN;3;.;2;0;0;1;1;1;0;0;42;3;plastic;2018;kobia³ka;2;3;5809.523809523809;1.0;1.0;1.0;1.0;1.0;55626344
bia³o³êka;warszawa;tarchomin;erazma z zakroczymia;.;missing;missing;missing;.;0;0;0;0;0;0;0;0;0;0;0;0;0;0;0;0;0;0;missing;52.3207016;https://www.otodom.pl/oferta/idealne-dla-rodziny-ciche-3-osobne-pokoje-ID3Iov8.html;20.95190048;secondary;0;0;0;True;cooperative_ownership_with_mortgage_register;828;375000.0;PLN;15;.;3;0;0;0;0;0;0;0;63;3;missing;1992;tarchomin;groundfloor;10;5952.380952380952;27.0;27.0;27.0;27.0;27.0;54909688
w³ochy;warszawa;.;.;.;missing;missing;missing;.;0;0;0;0;0;0;0;0;0;0;0;0;0;0;0;0;0;0;missing;52.197314419202;https://www.otodom.pl/oferta/sloneczne-mieszkanie-od-poludnia-z-garderoba-ID3Khly.html;20.953362567737;primary;0;0;0;False;missing;330;443265.0;PLN;15;.;3;0;0;0;0;0;0;0;61;12;missing;2019;w³ochy;2;4;7266.639344262295;0.0;0.0;0.0;0.0;0.0;55358780
bemowo;warszawa;.;.;.;missing;block;to_completion;.;0;0;0;0;0;0;0;0;1;0;0;0;1;0;0;0;0;0;missing;52.2409067;https://www.otodom.pl/oferta/30-min-do-centrum-warszawy-zamieszkaj-pod-warszawa-ID3INGo.html;20.9113297;primary;0;0;0;False;full_ownership;1789;237256.0;PLN;15;280.0;2;0;0;1;1;1;0;0;42;15;plastic;2018;bemowo;1;3;5648.952380952381;1.0;1.0;1.0;1.0;1.0;55006424
mokotów;warszawa;ksawerów;bukowiñska;.;missing;apartment;to_completion;.;0;0;0;0;0;0;0;1;0;0;1;0;1;0;0;0;0;0;missing;52.19832;https://www.otodom.pl/oferta/luksusowy-i-przestronny-apartament-na-mokotowie-ID3JLpe.html;21.01715;primary;0;0;0;True;full_ownership;385;960273.0;PLN;15;.;4;0;0;0;1;1;0;0;93;9;missing;.;ksawerów;6;7;10325.516129032258;1.0;1.0;1.0;1.0;1.0;55236000
bia³o³êka;warszawa;henryków;klasyków;.;missing;block;to_completion;.;0;0;0;0;0;0;0;1;0;0;0;0;1;0;0;0;0;1;urban;52.23614;https://www.otodom.pl/oferta/od-dewelopera-kameralne-osiedle-59m2-3-pok-balk-ID3IImo.html;21.00817;primary;1;1;1;True;full_ownership;2238;424200.0;PLN;15;.;3;0;0;0;0;1;0;0;59;15;plastic;2019;henryków;2;3;7189.830508474576;0.0;0.0;0.0;0.0;0.0;54985964
bia³o³êka;warszawa;.;.;.;missing;missing;missing;.;0;0;0;0;0;0;0;0;0;0;0;0;0;0;0;0;0;0;missing;52.3415853;https://www.otodom.pl/oferta/bezposrednio-balkon-16m2-gotowe-lokale-ID3LiZ2.html;21.0662461;primary;0;0;0;False;missing;136;253000.0;PLN;4;.;2;0;0;0;0;0;0;0;41;4;missing;2018;bia³o³êka;1;missing;6170.731707317073;1.0;1.0;1.0;1.0;1.0;55603400
bemowo;warszawa;bemowo-lotnisko;so³tana andrzeja;.;missing;apartment;to_completion;.;0;0;0;0;0;0;0;1;1;0;1;0;1;0;0;0;0;0;urban;52.2548985;https://www.otodom.pl/oferta/mieszkanie-75-m-warszawa-ID3La0A.html;20.9248606;secondary;0;0;0;False;full_ownership;235;548000.0;PLN;6;.;4;0;0;1;1;0;0;0;75;6;plastic;2018;bemowo-lotnisko;3;7;7306.666666666667;1.0;1.0;1.0;1.0;1.0;55568900
targówek;warszawa;targówek mieszkaniowy;witebska;.;breezeblock;block;to_completion;.;0;0;0;0;0;0;0;1;0;0;1;0;1;0;0;0;0;0;missing;52.2687672;https://www.otodom.pl/oferta/idealne-dla-malej-rodziny-na-start-blisko-metra-ID3IJXi.html;21.0459701;secondary;0;0;0;True;full_ownership;570;445000.0;PLN;15;305.0;3;0;1;0;1;0;0;0;53;5;plastic;2018;targówek mieszkaniowy;1;5;8396.22641509434;1.0;1.0;1.0;1.0;1.0;54992096
mokotów;warszawa;s³u¿ewiec;obrze¿na;.;missing;apartment;ready_to_use;.;0;0;0;0;0;0;0;1;0;0;1;0;1;0;0;0;0;1;urban;52.171856;https://www.otodom.pl/oferta/trzypokojowy-apartament-na-osiedlu-hubertus-ID3JEdi.html;20.9976271;secondary;1;1;0;True;full_ownership;698;820000.0;PLN;15;500.0;3;0;0;0;0;1;0;0;75;3;wooden;2017;s³u¿ewiec;4;5;10933.333333333334;2.0;2.0;2.0;2.0;2.0;55208352
œródmieœcie;warszawa;solec;herberta zbigniewa;.;brick;apartment;ready_to_use;.;0;0;0;0;0;0;0;1;0;1;1;0;1;0;0;0;0;0;urban;52.2316089;https://www.otodom.pl/oferta/apartament-na-powislu-tuz-przy-parkach-ID3JMa8.html;21.0307229;secondary;1;1;0;False;full_ownership;404;2200000.0;PLN;15;.;4;0;0;0;0;1;0;0;120;10;wooden;2008;solec;6;7;18333.333333333332;11.0;11.0;11.0;11.0;11.0;55238908
¿oliborz;warszawa;marymont-potok;elbl¹ska;.;missing;block;missing;.;0;0;0;0;0;0;0;1;1;0;0;0;1;0;0;0;0;0;missing;52.2611318;https://www.otodom.pl/oferta/dwupokojowe-mieszkanie-na-zoliborzu-ID3LnJK.html;20.961683;secondary;0;0;0;True;cooperative_ownership;137;360000.0;PLN;3;350.0;2;0;0;0;0;0;0;0;37;3;plastic;1965;marymont-potok;2;7;9729.72972972973;54.0;54.0;54.0;54.0;54.0;55621672
bia³o³êka;warszawa;nowodwory;odkryta;.;brick;block;ready_to_use;.;0;0;0;0;0;0;0;0;0;0;1;0;1;0;0;0;0;0;urban;52.3335651;https://www.otodom.pl/oferta/3-pokoje-na-bialolece-ID3J8WG.html;20.9372085;secondary;0;0;0;True;full_ownership;343;385000.0;PLN;15;.;2;0;0;0;0;0;0;0;50;4;missing;2003;nowodwory;5;7;7700.0;16.0;16.0;16.0;16.0;16.0;55088096
wilanów;warszawa;wilanów wysoki;wiktorii wiedeñskiej;2018-07-10;brick;apartment;missing;.;0;0;0;0;0;0;0;0;0;0;0;0;0;0;0;1;0;0;urban;52.1697217;https://www.otodom.pl/oferta/komfortowy-apartament-z-klimatyzacja-na-wilanowie-ID3HVaU.html;21.0737178;secondary;0;0;0;True;missing;249;950000.0;PLN;15;.;4;0;0;0;0;0;0;0;101;15;wooden;1993;wilanów wysoki;2;2;9405.940594059406;26.0;26.0;26.0;26.0;26.0;54800740
mokotów;warszawa;s³u¿ew;rolna;.;missing;missing;missing;.;0;0;0;0;0;0;0;1;0;0;1;0;1;0;0;0;0;0;missing;52.23614;https://www.otodom.pl/oferta/mieszkanie-71-42-m-warszawa-ID3JOR2.html;21.00817;primary;0;0;0;True;missing;315;664206.0;PLN;15;.;3;0;0;0;0;0;0;0;71;15;missing;2018;s³u¿ew;4;missing;9355.014084507042;1.0;1.0;1.0;1.0;1.0;55249256
wola;warszawa;.;.;.;other;block;missing;.;0;0;0;0;0;0;0;1;1;0;1;0;1;0;0;0;0;1;missing;52.23338;https://www.otodom.pl/oferta/mieszkanie-47-m2-wola-ID3nFo4.html;20.95718;primary;1;1;1;False;full_ownership;7347;399000.0;PLN;15;.;2;0;0;0;0;0;0;0;47;12;missing;2018;wola;gt10;14;8489.36170212766;1.0;1.0;1.0;1.0;1.0;49969648
wola;warszawa;mirów;grzybowska;.;missing;missing;to_completion;.;0;0;0;0;0;0;0;0;0;0;0;0;1;0;0;0;0;0;urban;52.2348826;https://www.otodom.pl/oferta/3-pok-kuchnia-rondo-onz-grzybowska-ID3JnKo.html;20.9918203;secondary;1;1;1;True;full_ownership;730;479000.0;PLN;15;540.0;3;0;0;0;0;0;0;0;48;8;plastic;1976;mirów;4;15;9979.166666666666;43.0;43.0;43.0;43.0;43.0;55145056
praga pó³noc;warszawa;nowa praga;stalowa;.;missing;block;to_completion;.;0;0;0;0;0;0;0;1;0;0;1;0;1;0;0;0;0;0;urban;52.2610724;https://www.otodom.pl/oferta/nowoczesna-kawalerka-31m2-praga-pln-ID3KOEU.html;21.0431214;primary;1;1;0;True;full_ownership;196;349500.0;PLN;12;.;1;0;0;1;1;1;0;0;31;11;plastic;.;nowa praga;3;7;11274.193548387097;1.0;1.0;1.0;1.0;1.0;55486832
ursynów;warszawa;.;.;.;missing;apartment;ready_to_use;.;0;0;0;0;0;0;0;1;0;0;1;0;1;0;0;0;0;0;missing;52.13323;https://www.otodom.pl/oferta/nowy-apartament-ursynow-metro-garaz-balkon-ID3ITwu.html;21.03252;secondary;1;1;1;False;full_ownership;478;1099000.0;PLN;15;730.0;4;0;0;0;0;1;0;0;80;15;plastic;2017;ursynów;2;5;13737.5;2.0;2.0;2.0;2.0;2.0;55028812
bemowo;warszawa;.;.;.;missing;missing;missing;.;0;0;0;0;0;0;0;0;0;0;0;0;0;0;0;0;0;0;missing;52.24091;https://www.otodom.pl/oferta/mieszkanie-64-70-m-warszawa-ID3KG8E.html;20.91133;secondary;0;0;0;False;missing;270;470000.0;PLN;14;.;3;0;0;0;0;0;0;0;65;13;missing;.;bemowo;groundfloor;3;7230.7692307692305;.;14.104166666666666;18.0;2.0;0.0;55454080
œródmieœcie;warszawa;muranów;niska;.;missing;missing;missing;.;0;0;0;0;0;0;0;1;0;0;0;0;0;0;0;0;0;0;missing;52.2510098;https://www.otodom.pl/oferta/mieszkanie-37-m-warszawa-ID3Kg6Q.html;20.9873613;secondary;0;0;0;True;missing;402;560000.0;PLN;15;.;2;0;0;0;0;0;0;0;37;15;missing;2018;muranów;1;missing;15135.135135135135;1.0;1.0;1.0;1.0;1.0;55354024
wilanów;warszawa;wilanów królewski;sarmacka;.;missing;missing;missing;.;0;0;0;0;0;0;0;1;0;0;1;0;0;0;0;0;0;0;missing;52.16602;https://www.otodom.pl/oferta/apartament-4-pokoje-na-90m2-ID3IxoQ.html;21.07407;secondary;0;0;0;True;missing;952;990000.0;PLN;15;.;4;0;0;0;0;0;0;0;90;1;missing;.;wilanów królewski;3;4;11000.0;.;7.155172413793103;17.0;6.0;9.0;54943832
bia³o³êka;warszawa;.;.;.;missing;missing;missing;.;0;0;0;0;0;0;0;0;0;0;0;0;1;0;0;0;0;0;missing;52.303412548348;https://www.otodom.pl/oferta/mieszkanie-86-17-m-warszawa-ID3HVdu.html;20.991643642358;primary;0;0;0;False;missing;291;546600.0;PLN;15;.;4;0;0;0;0;0;0;0;86;2;missing;2019;bia³o³êka;groundfloor;5;6355.813953488372;0.0;0.0;0.0;0.0;0.0;54800900
targówek;warszawa;bródno;kondratowicza ludwika;.;concrete_plate;block;missing;.;0;0;0;0;0;0;0;0;1;0;0;0;1;0;0;0;0;0;urban;52.2921122;https://www.otodom.pl/oferta/po-remoncie-planowana-stacja-metra-ID3JwD6.html;21.0477683;secondary;0;0;0;False;cooperative_ownership;432;540000.0;PLN;15;750.0;3;0;0;0;1;0;0;0;84;5;plastic;1981;bródno;6;12;6428.571428571428;38.0;38.0;38.0;38.0;38.0;55175356
mokotów;warszawa;.;.;.;brick;apartment;ready_to_use;.;1;1;1;1;0;0;0;0;0;1;1;0;1;1;0;1;0;1;missing;52.19832;https://www.otodom.pl/oferta/luksusowe-apartament-na-stegnach-255-mkw-ID3JWNe.html;21.01715;secondary;1;1;1;False;full_ownership;404;3000000.0;PLN;15;.;5;1;0;1;1;1;0;0;255;15;wooden;1998;mokotów;1;4;11764.70588235294;21.0;21.0;21.0;21.0;21.0;55275928
ursynów;warszawa;kabaty;.;2018-09-03;brick;apartment;ready_to_use;.;1;1;1;1;0;1;0;1;0;1;1;0;1;0;0;0;0;0;urban;52.13;https://www.otodom.pl/oferta/sprzedam-bezposrednio-66-m-przy-metrze-kabaty-ID3L0sc.html;21.08;secondary;1;1;1;False;cooperative_ownership_with_mortgage_register;878;690000.0;PLN;8;670.0;3;0;1;1;1;1;0;0;66;2;missing;.;kabaty;5;5;10454.545454545454;.;11.54054054054054;8.0;11.0;11.0;55532172
ursynów;warszawa;ursynów pó³nocny;cybisa jana;.;concrete_plate;missing;ready_to_use;.;0;0;0;0;0;0;0;1;1;0;0;0;0;0;0;0;0;0;missing;52.1532501;https://www.otodom.pl/oferta/3-pokojowe-na-ursynowie-grunt-uregulowany-ID3LqLC.html;21.0222178;secondary;0;0;0;False;cooperative_ownership_with_mortgage_register;156;470000.0;PLN;3;500.0;3;0;0;0;0;0;0;0;53;2;missing;1974;ursynów pó³nocny;3;4;8867.924528301886;45.0;45.0;45.0;45.0;45.0;55633320
wola;warszawa;ko³o;elekcyjna;.;missing;block;missing;.;0;0;0;0;0;0;0;1;0;1;0;0;1;0;0;0;0;0;urban;52.2339108;https://www.otodom.pl/oferta/osmioletnie-mieszkanie-przy-parku-moczydlo-ID3Lpqo.html;20.9482198;secondary;0;0;0;True;missing;110;559000.0;PLN;3;.;2;0;0;1;1;1;0;0;56;3;plastic;2009;ko³o;5;8;9982.142857142857;10.0;10.0;10.0;10.0;10.0;55628160
¿oliborz;warszawa;sady ¿oliborskie;k³opot;.;missing;apartment;to_completion;.;0;0;0;0;0;0;0;1;0;0;0;0;1;0;0;0;0;0;urban;52.25768188;https://www.otodom.pl/oferta/m1-przy-arkadii-blisko-metra-ID3Lh4U.html;20.9801264;primary;1;1;0;True;full_ownership;165;329000.0;PLN;5;.;1;0;0;0;0;0;0;0;25;5;wooden;2019;sady ¿oliborskie;6;11;13160.0;0.0;0.0;0.0;0.0;0.0;55596076
wilanów;warszawa;wilanów królewski;sarmacka;.;brick;apartment;ready_to_use;.;0;0;0;0;0;0;0;1;0;0;1;0;1;0;0;0;0;0;missing;52.1656124;https://www.otodom.pl/oferta/dwupokojowy-apartament-w-wilanowie-ID3L6AM.html;21.0767362;secondary;1;1;0;True;full_ownership;229;750000.0;PLN;6;.;2;0;0;0;0;1;0;0;78;4;wooden;2006;wilanów królewski;2;3;9615.384615384615;13.0;13.0;13.0;13.0;13.0;55555768
œródmieœcie;warszawa;powiœle;szara;.;brick;tenement;missing;.;0;0;0;0;0;0;0;1;1;0;0;0;0;0;0;0;0;0;missing;52.227303;https://www.otodom.pl/oferta/mieszkanie-76-41-m-warszawa-ID3J3mc.html;21.0339;secondary;0;0;0;True;cooperative_ownership;593;1100000.0;PLN;15;850.0;3;0;0;0;0;0;0;0;76;12;plastic;.;powiœle;1;4;14473.684210526315;.;83.6788990825688;18.0;81.0;67.0;55066676
ochota;warszawa;.;.;.;brick;block;missing;.;0;0;0;0;0;0;0;0;0;1;1;1;1;1;0;0;0;0;urban;52.2103359;https://www.otodom.pl/oferta/mieszkanie-60-m-warszawa-ID3Jo0k.html;20.9712206;secondary;1;1;1;False;full_ownership;389;579990.0;PLN;15;560.0;2;0;1;0;1;0;0;0;60;3;plastic;.;ochota;groundfloor;4;9666.5;.;37.92857142857143;5.0;37.0;17.0;55146044
ursynów;warszawa;wyczó³ki;k³obucka;.;other;apartment;to_completion;.;0;0;0;0;0;0;0;0;0;0;0;1;1;1;0;0;0;0;urban;52.167999847412;https://www.otodom.pl/oferta/wyjatkowa-kawalerka-na-ursynowie-ID3K2ty.html;20.997999771118;secondary;0;1;0;True;missing;486;320000.0;PLN;15;.;1;0;0;0;0;0;0;0;34;4;missing;.;wyczó³ki;groundfloor;5;9411.764705882353;.;3.5;11.0;1.0;21.0;55301616
wola;warszawa;mirów;sienna;.;missing;apartment;missing;.;0;0;0;0;0;0;0;1;0;0;1;0;1;0;0;0;0;0;urban;52.23059;https://www.otodom.pl/oferta/mieszkanie-w-centrum-miasta-na-sprzedaz-ID3GV1y.html;20.99511;secondary;1;1;0;True;missing;1146;800028.0;PLN;15;.;3;0;0;1;1;1;0;0;64;15;missing;.;mirów;2;5;12500.4375;.;4.065217391304348;74.0;1.0;6.0;54561832
ochota;warszawa;.;.;.;other;apartment;to_completion;.;0;0;0;0;0;0;0;0;0;0;1;1;1;0;0;1;0;0;missing;52.2021313;https://www.otodom.pl/oferta/apartament-z-tarasem-19m2-i-ogrodkiem-28m2-ID3LeTi.html;20.9554848;primary;0;0;0;False;missing;121;1020895.0;PLN;5;.;4;0;1;1;1;1;0;0;109;5;missing;.;ochota;groundfloor;4;9366.009174311926;1.0;1.0;1.0;1.0;1.0;55587668
bemowo;warszawa;chrzanów;batalionów ch³opskich;.;missing;block;missing;.;0;0;0;0;0;0;0;1;0;0;1;0;1;0;0;0;0;0;urban;52.232043;https://www.otodom.pl/oferta/nowe-przytulne-3-pokojowe-mieszkanie-56-m2-ID3L4a0.html;20.8846794;primary;1;1;0;True;full_ownership;143;461000.0;PLN;7;.;3;0;0;1;1;1;0;0;56;6;plastic;.;chrzanów;5;5;8232.142857142857;1.0;1.0;1.0;1.0;1.0;55546420
œródmieœcie;warszawa;.;.;2018-09-09;brick;tenement;to_completion;.;0;0;0;0;0;0;0;0;0;0;0;0;0;0;0;0;0;0;urban;52.23313;https://www.otodom.pl/oferta/prestizowe-mieszkanie-na-krakowskim-przedmiesciu-ID3Lb20.html;21.019;secondary;0;0;0;False;full_ownership;160;1899000.0;PLN;6;.;3;0;0;0;0;0;0;0;98;1;wooden;.;œródmieœcie;2;3;19377.551020408162;.;83.6788990825688;18.0;81.0;82.0;55572832
bia³o³êka;warszawa;nowodwory;strumykowa;2018-08-31;brick;block;ready_to_use;.;0;1;1;1;1;1;0;1;0;1;1;0;0;0;0;1;1;0;boiler_room;52.333811619915394;https://www.otodom.pl/oferta/bezposrednio-90-m2-warszawa-bialololeka-ID3IEtS.html;20.94680319580078;secondary;1;1;1;True;full_ownership;1754;576000.0;PLN;15;550.0;4;0;1;0;1;1;0;0;90;2;plastic;2000;nowodwory;3;4;6400.0;19.0;19.0;19.0;19.0;19.0;54971052
w³ochy;warszawa;stare w³ochy;drukarzy;2018-08-31;missing;apartment;ready_to_use;.;1;1;1;1;1;1;0;0;0;1;1;0;1;0;0;1;0;0;boiler_room;52.20148;https://www.otodom.pl/oferta/apartament-stare-wlochy-ID3JTPS.html;20.9249;secondary;1;1;0;True;full_ownership;884;1120000.0;PLN;15;900.0;3;0;0;1;1;0;0;0;112;13;plastic;2009;stare w³ochy;3;3;10000.0;10.0;10.0;10.0;10.0;10.0;55268404
œródmieœcie;warszawa;œródmieœcie pó³nocne;marsza³kowska;2018-05-24;brick;block;ready_to_use;.;0;1;0;1;0;1;0;1;1;1;0;0;1;1;0;0;0;0;urban;52.23194;https://www.otodom.pl/oferta/marszalkowska-85-lub-zamienie-ID3kRJu.html;21.01111;secondary;1;1;1;True;full_ownership;1952;660000.0;PLN;15;366.0;3;0;1;1;0;0;1;0;55;5;plastic;1956;œródmieœcie pó³nocne;3;7;12000.0;63.0;63.0;63.0;63.0;63.0;49302120
praga po³udnie;warszawa;goc³aw;wiatraczna;.;missing;apartment;to_completion;.;0;0;0;0;0;0;0;1;0;0;1;0;1;0;0;0;0;0;missing;52.2453919;https://www.otodom.pl/oferta/apartament-na-nowoczesnym-kameralnym-osiedlu-ID3LoK4.html;21.0845187;primary;0;0;0;True;missing;105;326089.0;PLN;3;.;2;0;0;0;1;1;0;0;42;2;missing;.;goc³aw;2;5;7764.023809523809;1.0;1.0;1.0;1.0;1.0;55625536
œródmieœcie;warszawa;solec;.;.;other;apartment;to_completion;.;0;0;0;0;0;0;0;1;0;0;1;0;1;1;0;0;0;0;missing;52.2301846;https://www.otodom.pl/oferta/apartament-na-prestizowym-powislu-ID3LhEQ.html;21.0414263;primary;0;0;0;False;missing;112;1334040.0;PLN;4;.;4;0;1;1;1;1;0;0;111;4;missing;2016;solec;3;11;12018.378378378378;3.0;3.0;3.0;3.0;3.0;55598304
praga po³udnie;warszawa;grochów;stanis³awa ¿ó³kiewskiego;.;brick;tenement;ready_to_use;.;0;0;0;0;0;0;0;0;1;0;0;0;0;0;0;0;0;0;urban;52.2452228;https://www.otodom.pl/oferta/2-pokojowe-mieszkanie-praga-poludnie-ID3JJD2.html;21.1093196;secondary;1;1;0;True;full_ownership;549;440000.0;PLN;15;350.0;2;0;0;0;0;0;0;0;48;1;plastic;1952;grochów;2;3;9166.666666666666;67.0;67.0;67.0;67.0;67.0;55229168
mokotów;warszawa;ksawerów;wielicka;.;brick;missing;missing;.;0;0;0;0;0;0;0;0;0;0;1;0;0;0;0;0;0;0;urban;52.18554;https://www.otodom.pl/oferta/apartament-przy-ul-wielickiej-tuz-przy-metrze-ID3JpEQ.html;21.02148;secondary;0;0;0;True;full_ownership;440;1280000.0;PLN;15;.;3;0;0;0;0;0;0;0;128;3;missing;2000;ksawerów;4;10;10000.0;19.0;19.0;19.0;19.0;19.0;55152400
praga pó³noc;warszawa;.;.;.;missing;tenement;missing;.;0;0;0;0;0;0;0;1;0;1;0;0;0;0;0;1;0;0;missing;52.251078;https://www.otodom.pl/oferta/2-poziomowy-apartament-w-odrestaurowanej-kamienicy-ID3K8W2.html;21.03537;secondary;0;1;0;False;full_ownership;407;1870850.0;PLN;15;.;5;0;0;0;0;1;0;0;121;15;wooden;1906;praga pó³noc;5;5;15461.570247933885;113.0;113.0;113.0;113.0;113.0;55326384
bia³o³êka;warszawa;.;.;.;missing;missing;missing;.;0;0;0;0;0;0;0;0;0;0;0;0;0;0;0;0;0;0;missing;52.32899;https://www.otodom.pl/oferta/mieszkanie-53-70-m-warszawa-ID3KPSY.html;21.00768;secondary;0;0;0;False;missing;233;360000.0;PLN;11;.;3;0;0;0;0;0;0;0;54;3;missing;.;bia³o³êka;1;missing;6666.666666666667;.;3.634920634920635;49.0;1.0;0.0;55491548
wola;warszawa;m³ynów;.;.;missing;missing;missing;.;0;0;0;0;0;0;0;0;0;0;0;0;0;0;0;0;0;0;missing;52.23338;https://www.otodom.pl/oferta/mieszkanie-51-87-m-warszawa-ID3LsA0.html;20.95718;secondary;0;0;0;False;missing;93;485000.0;PLN;2;.;3;0;0;0;0;0;0;0;52;2;missing;1968;m³ynów;2;3;9326.923076923076;51.0;51.0;51.0;51.0;51.0;55640288
ochota;warszawa;szczêœliwice;piotrkowska;.;missing;tenement;to_renovation;.;0;0;0;0;0;0;0;1;1;0;0;0;0;0;0;0;0;0;urban;52.23614;https://www.otodom.pl/oferta/super-mieszkanie-w-przedwojennej-kamienicy-ID3JjPm.html;21.00817;secondary;0;0;0;True;missing;608;455000.0;PLN;15;.;2;0;0;0;0;0;0;0;53;9;plastic;1936;szczêœliwice;2;4;8584.905660377359;83.0;83.0;83.0;83.0;83.0;55129988
targówek;warszawa;bródno;krasiczyñska;2018-09-07;reinforced_concrete;block;ready_to_use;.;0;1;0;1;0;1;0;0;1;1;0;0;0;1;0;0;0;0;urban;52.296645815369004;https://www.otodom.pl/oferta/bezposrednio-urocze-male-2-pok-po-remoncie-ID3KEMg.html;21.04520486190185;secondary;1;1;1;True;cooperative_ownership_with_mortgage_register;1921;245000.0;PLN;14;335.0;2;0;1;0;1;1;0;0;27;3;plastic;1972;bródno;2;4;9074.074074074075;47.0;47.0;47.0;47.0;47.0;55448848
wilanów;warszawa;zawady;bruzdowa;2019-12-30;silikat;block;to_completion;.;0;0;0;0;0;0;0;1;0;0;1;1;0;0;0;1;0;0;gas;52.1616086;https://www.otodom.pl/oferta/nowe-kameralne-i-sympatyczne-osiedle-ID3KIiM.html;21.1246899;primary;0;0;0;True;full_ownership;493;354710.0;PLN;13;.;2;0;0;0;1;1;0;0;45;8;plastic;2019;zawady;2;2;7882.444444444444;0.0;0.0;0.0;0.0;0.0;55462396
praga pó³noc;warszawa;.;.;.;missing;missing;missing;.;0;0;0;0;0;0;0;0;1;0;0;0;1;1;0;0;0;0;missing;52.2633;https://www.otodom.pl/oferta/panoramiczneokna-duza-antresola-ponad3-5m-wys-ID3KbFC.html;21.02832;primary;1;1;1;False;full_ownership;286;962500.0;PLN;15;.;4;0;0;1;0;0;0;0;105;15;wooden;2018;praga pó³noc;5;6;9166.666666666666;1.0;1.0;1.0;1.0;1.0;55336960
¿oliborz;warszawa;stary ¿oliborz;bitwy pod rokitn¹;2017-10-01;brick;apartment;ready_to_use;.;1;1;1;1;1;1;1;0;0;1;0;0;1;0;0;1;0;0;urban;52.26223239999999;https://www.otodom.pl/oferta/74-m2-studio-w-budynku-z-basenem-na-zoliborzu-ID3mAAH.html;20.98632269999996;secondary;1;1;1;True;full_ownership;5345;900000.0;PLN;15;.;1;1;0;1;1;1;0;0;74;15;wooden;2003;stary ¿oliborz;groundfloor;9;12162.162162162162;16.0;16.0;16.0;16.0;16.0;49712883
¿oliborz;warszawa;sady ¿oliborskie;przasnyska;.;brick;apartment;ready_to_use;.;0;0;0;0;0;0;0;1;0;0;0;0;1;0;0;0;0;0;urban;52.2599383;https://www.otodom.pl/oferta/2-pokoje-wykonczone-bez-podatku-pcc-ID3JhsM.html;20.9687653;secondary;1;0;0;True;full_ownership;1168;530000.0;PLN;15;.;2;0;0;0;0;1;0;0;50;9;wooden;2017;sady ¿oliborskie;3;4;10600.0;2.0;2.0;2.0;2.0;2.0;55120900
rembertów;warszawa;stary rembertów;.;2018-05-10;other;block;missing;.;0;0;0;0;0;0;0;0;0;0;0;0;1;0;0;0;0;0;other;52.26388;https://www.otodom.pl/oferta/przytulne-ciche-zadbane-niski-czynsz-ID3DiuY.html;21.1428;secondary;1;1;0;False;full_ownership;2774;345000.0;PLN;15;.;2;0;1;0;1;1;0;0;48;9;missing;2003;stary rembertów;4;4;7187.5;16.0;16.0;16.0;16.0;16.0;53694912
praga po³udnie;warszawa;grochów;igañska;.;missing;missing;missing;.;0;0;0;0;0;0;0;1;1;0;0;0;0;0;0;0;0;1;missing;52.2408654;https://www.otodom.pl/oferta/dwupokojowe-ladnie-wykonczone50-5m2-r-wiatraczna-ID3L41i.html;21.0903456;secondary;0;0;0;True;cooperative_ownership;229;375000.0;PLN;7;.;2;0;0;0;0;0;0;0;50;7;missing;1982;grochów;10;16;7500.0;37.0;37.0;37.0;37.0;37.0;55545880
ursus;warszawa;szamoty;hennela tadeusza;.;missing;block;to_completion;.;0;0;0;0;0;0;0;1;0;0;1;0;1;0;0;0;0;1;missing;52.19918566573804;https://www.otodom.pl/oferta/mieszkanie-3-pokojowe-66m2-ursa-park-c-138-ID3FRvY.html;20.889466157836914;primary;0;0;0;False;missing;564;440328.0;PLN;15;.;3;0;1;1;1;1;0;0;66;3;missing;2018;szamoty;3;6;6671.636363636364;1.0;1.0;1.0;1.0;1.0;54306232
mokotów;warszawa;stary mokotów;bia³y kamieñ;.;missing;apartment;ready_to_use;.;0;0;0;0;0;0;0;0;0;0;0;0;1;0;0;0;0;1;urban;52.2059687;https://www.otodom.pl/oferta/penthouse-na-mokotowie-bialy-kamien-ID3Jb7q.html;20.9960787;secondary;1;1;0;True;full_ownership;578;2490000.0;PLN;15;.;4;0;0;0;0;1;0;0;130;11;missing;2005;stary mokotów;4;4;19153.846153846152;14.0;14.0;14.0;14.0;14.0;55096512
ursynów;warszawa;.;.;.;missing;missing;missing;.;0;0;0;0;0;0;0;0;0;0;0;0;0;0;0;0;0;0;missing;52.13785;https://www.otodom.pl/oferta/mieszkanie-15-min-od-stacji-metra-cegla-ID3L5gA.html;21.02912;secondary;0;0;0;False;full_ownership;199;940000.0;PLN;7;.;4;0;0;0;0;0;0;0;112;7;missing;1997;ursynów;2;3;8392.857142857143;22.0;22.0;22.0;22.0;22.0;55550672
bia³o³êka;warszawa;.;.;.;missing;missing;missing;.;0;0;0;0;0;0;0;0;0;0;0;0;0;0;0;0;0;0;missing;52.3415853;https://www.otodom.pl/oferta/bezposrednio-balkon-tez-gotowe-lokale-ID3LnBa.html;21.0662461;primary;0;0;0;False;missing;105;231000.0;PLN;3;.;2;0;0;0;0;0;0;0;41;3;missing;2018;bia³o³êka;1;missing;5634.1463414634145;1.0;1.0;1.0;1.0;1.0;55621140
œródmieœcie;warszawa;powiœle;.;.;missing;apartment;ready_to_use;.;0;0;0;0;0;0;0;0;0;0;1;0;1;0;0;0;0;0;missing;52.231876;https://www.otodom.pl/oferta/luksusowy-penthouse-na-powislu-z-pieknym-tarasem-ID3kMTI.html;21.03247;secondary;1;1;0;False;full_ownership;8237;5090000.0;PLN;15;.;5;0;0;0;0;1;0;0;180;7;wooden;2006;powiœle;8;8;28277.777777777777;13.0;13.0;13.0;13.0;13.0;49283534
w³ochy;warszawa;okêcie;radarowa;.;brick;block;ready_to_use;.;0;0;0;0;0;0;0;1;1;0;0;0;1;0;0;0;0;0;urban;52.1904782;https://www.otodom.pl/oferta/2-pokoje-przy-okeciu-balkon-ID3EYtV.html;20.9675977;secondary;1;1;1;True;cooperative_ownership;1691;449000.0;PLN;15;850.0;2;0;0;0;0;1;0;0;48;2;plastic;2003;okêcie;2;5;9354.166666666666;16.0;16.0;16.0;16.0;16.0;54094624
praga po³udnie;warszawa;grochów;.;2019-09-30;missing;apartment;missing;.;0;0;0;0;0;0;0;1;1;0;1;0;1;0;0;0;0;0;missing;52.2416808;https://www.otodom.pl/oferta/nowe-osiedle-w-super-lokalizacji-bez-prowizji-ID3IEna.html;21.0840602;secondary;0;0;0;False;missing;383;424606.0;PLN;15;.;4;0;0;0;1;0;0;0;54;15;plastic;2019;grochów;1;5;7863.074074074074;0.0;0.0;0.0;0.0;0.0;54970636
bia³o³êka;warszawa;szamocin;giuseppe verdiego;.;brick;block;missing;.;0;0;0;0;0;0;0;1;0;0;1;0;1;0;0;0;0;0;missing;52.344101512797124;https://www.otodom.pl/oferta/szansa-2-pokoje-na-juz-skorzystaj-i-ty-ID3giUE.html;21.05369484760742;primary;1;1;0;True;full_ownership;2960;245800.0;PLN;15;.;2;0;1;1;1;1;0;0;41;2;plastic;.;szamocin;1;2;5995.121951219512;1.0;1.0;1.0;1.0;1.0;48214960
bemowo;warszawa;jelonki pó³nocne;widawska;2018-07-03;concrete;block;ready_to_use;.;0;0;0;0;0;0;0;1;1;0;0;0;1;1;0;0;0;0;urban;52.252957115739235;https://www.otodom.pl/oferta/m-4-widawska-ID3Hq5V.html;20.92635189620972;secondary;1;1;1;True;cooperative_ownership;1240;495000.0;PLN;15;483.0;3;0;0;0;1;0;0;0;63;9;plastic;1999;jelonki pó³nocne;6;8;7857.142857142857;20.0;20.0;20.0;20.0;20.0;54677424
wola;warszawa;odolany;cypriana kamila norwida;.;reinforced_concrete;block;to_completion;.;0;0;0;0;0;0;0;1;0;0;1;0;1;0;0;0;0;1;urban;52.23180362396138;https://www.otodom.pl/oferta/komfort-i-wygoda-3-pokoje-w-nowej-inwestycji-ID3L29V.html;20.937308943896493;primary;1;1;0;True;missing;165;515228.0;PLN;7;.;3;0;0;1;1;1;0;0;58;4;plastic;.;odolany;9;11;8883.241379310344;1.0;1.0;1.0;1.0;1.0;55538728
praga pó³noc;warszawa;szmulowizna;nowa;.;missing;tenement;missing;.;0;0;0;0;0;0;0;1;0;0;0;0;1;0;0;0;0;0;missing;52.2633;https://www.otodom.pl/oferta/mieszkanie-43-20-m-warszawa-ID3IfaE.html;21.02832;primary;0;0;0;False;full_ownership;538;375321.0;PLN;15;.;2;0;0;0;1;0;0;0;43;6;missing;2019;szmulowizna;1;5;8728.39534883721;0.0;0.0;0.0;0.0;0.0;54873760
wilanów;warszawa;zawady;.;.;brick;apartment;missing;.;0;0;0;0;0;0;0;0;0;0;1;0;0;0;0;1;0;0;missing;52.16624;https://www.otodom.pl/oferta/mieszkanie-60-60-m-warszawa-ID3L53i.html;21.10904;secondary;1;1;0;False;full_ownership;239;480000.0;PLN;7;.;2;0;0;0;0;0;0;0;61;7;wooden;2004;zawady;groundfloor;2;7868.852459016393;15.0;15.0;15.0;15.0;15.0;55549848
mokotów;warszawa;.;.;.;missing;missing;missing;.;0;0;0;0;0;0;0;0;0;0;0;0;1;0;0;0;0;0;missing;52.177532017923;https://www.otodom.pl/oferta/mieszkanie-55-23-m-warszawa-ID3Khna.html;21.001183702686;primary;0;0;0;False;missing;929;450124.0;PLN;15;.;3;0;0;0;1;1;0;0;55;2;missing;2019;mokotów;groundfloor;7;8184.072727272727;0.0;0.0;0.0;0.0;0.0;55358880
œródmieœcie;warszawa;œródmieœcie pó³nocne;grzybowska;2018-07-11;concrete_plate;block;ready_to_use;.;0;1;1;1;0;1;0;0;0;1;0;0;1;0;0;0;0;1;urban;52.23628;https://www.otodom.pl/oferta/3-pokoje-grzybowska-50m-piekny-widok-ID3HYEY.html;21.0051;secondary;0;0;0;True;cooperative_ownership;505;560000.0;PLN;15;435.0;3;0;0;0;1;0;0;0;50;5;plastic;1972;œródmieœcie pó³nocne;gt10;15;11200.0;47.0;47.0;47.0;47.0;47.0;54810292
wola;warszawa;czyste;.;.;brick;missing;missing;.;0;0;0;0;0;0;0;1;1;0;1;0;1;0;0;0;0;0;urban;52.11985;https://www.otodom.pl/oferta/mieszkanie-3-pokojowe-na-woli-czyste-ID3IkEQ.html;21.01334;secondary;1;1;1;False;full_ownership;610;620000.0;PLN;15;633.0;3;0;0;0;0;0;0;0;60;4;plastic;2018;czyste;2;5;10333.333333333334;1.0;1.0;1.0;1.0;1.0;54894852
mokotów;warszawa;ksawerów;bukowiñska;.;missing;block;to_completion;.;0;0;0;0;0;0;0;1;0;0;1;0;1;1;0;0;0;0;urban;52.1823249;https://www.otodom.pl/oferta/sprzedam-mieszkanie-apartament-metro-ID3FNPu.html;21.0258847;primary;0;0;0;True;full_ownership;3424;460000.0;PLN;15;.;2;0;0;0;0;0;0;0;43;14;wooden;2018;ksawerów;3;6;10697.67441860465;1.0;1.0;1.0;1.0;1.0;54292004
bielany;warszawa;wawrzyszew;sándora petöfiego;.;missing;missing;missing;.;0;0;0;0;0;0;0;0;0;0;0;0;0;0;0;0;0;0;missing;52.29359;https://www.otodom.pl/oferta/po-remoncie-do-wprowadzenia-metro-wawrzyszew-ID3LqFC.html;20.92645;secondary;0;0;0;False;cooperative_ownership_with_mortgage_register;242;495000.0;PLN;3;.;3;0;0;0;0;0;0;0;57;3;missing;1981;wawrzyszew;9;15;8684.21052631579;38.0;38.0;38.0;38.0;38.0;55632948
bia³o³êka;warszawa;d¹brówka szlachecka;husa jana;2018-08-31;brick;block;missing;.;0;0;0;0;0;0;0;0;0;0;0;0;0;0;0;0;0;0;missing;52.32899;https://www.otodom.pl/oferta/44-4-m2-2-pok-jasne-ciche-przytulne-ID3LlDS.html;21.00768;secondary;0;0;0;False;full_ownership;219;269000.0;PLN;4;.;2;0;0;0;0;0;0;0;44;4;missing;2000;d¹brówka szlachecka;1;4;6113.636363636364;19.0;19.0;19.0;19.0;19.0;55613620
¿oliborz;warszawa;.;.;.;missing;missing;missing;.;0;0;0;0;0;0;0;0;0;0;0;0;0;0;0;0;0;0;missing;52.26971;https://www.otodom.pl/oferta/mieszkanie-50-m-warszawa-ID3Kfyo.html;20.98462;secondary;0;0;0;False;missing;325;660000.0;PLN;15;.;2;0;0;0;0;0;0;0;50;15;missing;.;¿oliborz;2;5;13200.0;.;33.1;2.0;47.5;16.0;55351888
œródmieœcie;warszawa;powiœle;tamka;.;brick;missing;missing;.;0;0;0;0;0;0;0;1;0;0;1;0;1;0;0;0;0;0;missing;52.23736;https://www.otodom.pl/oferta/mieszkanie-54-30-m-warszawa-ID3JXFq.html;21.02608;secondary;0;0;0;True;full_ownership;377;720000.0;PLN;15;700.0;2;0;0;0;0;0;0;0;54;15;missing;1998;powiœle;4;6;13333.333333333334;21.0;21.0;21.0;21.0;21.0;55283132
bielany;warszawa;chomiczówka;kwitn¹ca;.;reinforced_concrete;block;to_renovation;.;0;0;0;0;0;0;0;1;1;0;0;0;1;0;0;0;0;0;urban;52.2764948;https://www.otodom.pl/oferta/do-sprzedazy-mieszkanie-3-pokoje-ul-kwitnaca-ID3Lgkv.html;20.9219274;secondary;1;1;1;True;cooperative_ownership;171;438000.0;PLN;5;600.0;3;0;0;0;0;0;0;0;65;5;wooden;1980;chomiczówka;8;10;6738.461538461538;39.0;39.0;39.0;39.0;39.0;55593200
wawer;warszawa;miedzeszyn;patriotów;.;brick;missing;missing;.;0;0;0;0;0;0;0;1;0;0;0;0;0;0;0;0;1;0;electrical;52.1835117;https://www.otodom.pl/oferta/piekny-apartament-w-perfekcyjnej-lokalizacji-ID3Jnc0.html;21.1889525;secondary;0;0;0;True;missing;544;699800.0;PLN;15;300.0;4;0;0;1;1;1;0;0;98;8;plastic;2008;miedzeszyn;2;2;7140.816326530612;11.0;11.0;11.0;11.0;11.0;55142924
mokotów;warszawa;czerniaków;bernardyñska;.;brick;apartment;ready_to_use;.;0;0;0;0;0;0;0;1;0;1;0;0;1;0;0;0;0;1;urban;52.1939955;https://www.otodom.pl/oferta/mieszkanie-53-14-m-warszawa-ID3K2xq.html;21.0620388;secondary;1;1;0;True;full_ownership;280;695000.0;PLN;15;.;2;0;0;0;0;0;0;0;53;4;wooden;2011;czerniaków;3;5;13113.207547169812;8.0;8.0;8.0;8.0;8.0;55301856
wola;warszawa;mirów;karolkowa;.;brick;tenement;to_renovation;.;0;0;0;0;0;0;0;0;0;0;0;0;0;1;0;0;0;0;urban;52.237147;https://www.otodom.pl/oferta/rozkladowe-mieszkanie-w-kamienicy-na-woli-ID3Knwa.html;20.9763649;secondary;0;0;0;True;full_ownership;574;399900.0;PLN;15;500.0;2;0;0;0;0;0;0;0;46;6;wooden;1950;mirów;1;3;8693.478260869566;69.0;69.0;69.0;69.0;69.0;55382440
praga po³udnie;warszawa;goc³aw;.;.;missing;apartment;missing;.;0;0;0;0;0;0;0;1;0;0;0;0;1;0;0;0;0;0;missing;52.2311997;https://www.otodom.pl/oferta/warszawa-goclaw-przytulne-4-pokoje-ID3zkuP.html;21.0936243;secondary;0;0;0;False;missing;4034;785000.0;PLN;15;621.0;4;0;0;0;0;0;0;0;81;7;missing;2015;goc³aw;4;6;9691.358024691359;4.0;4.0;4.0;4.0;4.0;52749279
wola;warszawa;.;.;.;missing;block;to_completion;.;0;0;0;0;0;0;0;0;0;0;1;0;1;0;0;1;0;0;urban;52.23338;https://www.otodom.pl/oferta/blisko-centrum-tym-bardziej-ze-za-chwile-metrem-ID3Lj92.html;20.95718;primary;1;1;0;False;full_ownership;123;665224.0;PLN;4;.;4;0;1;0;1;0;0;0;68;4;plastic;2019;wola;1;6;9782.70588235294;0.0;0.0;0.0;0.0;0.0;55604020
œródmieœcie;warszawa;powiœle;topiel;.;missing;apartment;to_completion;.;0;0;0;0;0;0;0;1;0;0;0;0;1;0;0;0;0;1;urban;52.2385096;https://www.otodom.pl/oferta/komfortowa-kawalerka-w-piano-house-ID3KQQc.html;21.0242106;secondary;0;0;0;True;full_ownership;334;558000.0;PLN;11;.;1;0;0;0;0;1;0;0;31;4;missing;2016;powiœle;4;6;18000.0;3.0;3.0;3.0;3.0;3.0;55495220
targówek;warszawa;bródno;krasnobrodzka;.;other;block;missing;.;0;0;0;0;0;0;0;0;0;0;0;0;0;0;0;0;0;0;missing;52.29984;https://www.otodom.pl/oferta/gotowe-do-wprowadzenia-nowoczesne-3-pokoje-ID3HFtK.html;21.04149;secondary;0;0;0;True;cooperative_ownership;625;385000.0;PLN;15;.;3;0;0;0;0;0;0;0;47;6;missing;.;bródno;4;10;8191.489361702128;.;24.3;1.0;14.0;72.0;54736560
mokotów;warszawa;s³u¿ew;aleja wyœcigowa;.;brick;apartment;missing;.;0;0;0;0;0;0;0;0;0;1;0;0;1;0;0;1;0;0;urban;52.1667873;https://www.otodom.pl/oferta/apartament-z-2014r-z-pelnym-wyposazeniem-metro-ID3KvcI.html;21.0119118;secondary;0;0;0;True;missing;322;667000.0;PLN;15;480.0;2;0;1;1;1;1;1;0;58;15;wooden;2014;s³u¿ew;7;10;11500.0;5.0;5.0;5.0;5.0;5.0;55415892
wola;warszawa;ulrychów;wolska;2018-08-12;missing;apartment;to_completion;.;0;0;0;0;0;0;0;1;1;0;1;0;1;1;0;1;0;0;urban;52.23313;https://www.otodom.pl/oferta/metro-city-link-mieszkanie-przy-stacji-metra-wola-ID3JPyk.html;21.019;primary;1;1;1;True;full_ownership;1318;376066.0;PLN;15;.;1;0;1;1;1;1;0;0;32;2;plastic;2018;ulrychów;2;16;11752.0625;1.0;1.0;1.0;1.0;1.0;55251940
mokotów;warszawa;czerniaków;bluszczañska;.;missing;block;to_completion;.;0;0;0;0;0;0;0;0;0;0;0;0;0;0;0;0;0;0;urban;52.2092078;https://www.otodom.pl/oferta/apartament-z-76-m2-ogrodem-na-mokotowie-ID3HUEc.html;21.0636253;primary;0;0;0;True;full_ownership;230;873393.0;PLN;15;.;4;0;0;0;0;1;0;0;100;2;plastic;2018;czerniaków;groundfloor;2;8733.93;1.0;1.0;1.0;1.0;1.0;54794868
mokotów;warszawa;stary mokotów;wiktorska;.;missing;missing;to_renovation;.;0;0;0;0;0;0;0;0;0;0;0;0;0;0;0;0;0;0;missing;52.23614;https://www.otodom.pl/oferta/sprzedam-2-pokojowe-mieszkanie-do-remontu-mokotow-ID3LfGg.html;21.00817;secondary;0;0;0;True;missing;253;529000.0;PLN;5;.;2;0;0;0;0;0;0;0;53;5;wooden;.;stary mokotów;groundfloor;3;9981.132075471698;.;13.131868131868131;58.0;1.0;1.0;55590704
wawer;warszawa;anin;alpejska;.;brick;apartment;ready_to_use;.;1;1;1;1;0;0;0;0;0;0;1;1;1;0;0;1;0;0;boiler_room;52.21730738494125;https://www.otodom.pl/oferta/warszawa-anin-mieszkanie-33-mkw-z-ogrodkiem-ID3wYgv.html;21.165253793640147;secondary;1;0;0;True;full_ownership;4412;360000.0;PLN;15;.;2;0;0;1;1;0;1;0;33;9;wooden;2012;anin;groundfloor;2;10909.09090909091;7.0;7.0;7.0;7.0;7.0;51948840
wola;warszawa;.;.;.;missing;missing;missing;.;0;0;0;0;0;0;0;0;0;0;0;0;0;0;0;0;0;0;missing;52.23338;https://www.otodom.pl/oferta/mieszkanie-33-m-warszawa-ID3KQ1G.html;20.95718;secondary;0;0;0;False;missing;237;379000.0;PLN;11;.;1;0;0;0;0;0;0;0;33;11;missing;.;wola;1;missing;11484.848484848484;.;19.773722627737225;45.0;3.0;37.0;55492088
ursynów;warszawa;kabaty;polnej ró¿y;.;missing;block;missing;.;0;0;0;0;0;0;0;0;1;0;1;0;0;1;0;0;0;0;missing;52.1288519;https://www.otodom.pl/oferta/kabaty-jasne-mieszkanie-ID3J5Fy.html;21.0635348;secondary;0;0;1;True;missing;1111;477000.0;PLN;15;400.0;2;0;0;0;0;0;0;0;69;6;plastic;1997;kabaty;4;4;6913.04347826087;22.0;22.0;22.0;22.0;22.0;55075564
mokotów;warszawa;s³u¿ewiec;cybernetyki;.;missing;missing;ready_to_use;.;0;0;0;0;0;0;0;0;0;0;0;0;0;0;0;0;0;0;urban;52.1764506;https://www.otodom.pl/oferta/3-pokojowe-na-mokotowie-ID3J5pm.html;20.9935391;secondary;0;0;0;True;full_ownership;344;810000.0;PLN;15;.;3;0;0;0;0;0;0;0;75;4;missing;2012;s³u¿ewiec;3;5;10800.0;7.0;7.0;7.0;7.0;7.0;55074560
ochota;warszawa;stara ochota;raszyñska;.;missing;tenement;missing;.;0;0;0;0;0;0;0;0;1;0;0;0;1;0;0;0;0;0;missing;52.23614;https://www.otodom.pl/oferta/unikatowe-156m-w-super-lokalizacji-ID3ItJ6.html;21.00817;secondary;0;0;0;True;missing;816;1248000.0;PLN;15;550.0;6;0;0;0;0;0;0;0;156;15;plastic;.;stara ochota;6;6;8000.0;.;76.3076923076923;2.0;83.0;34.0;54929712
bemowo;warszawa;jelonki pó³nocne;gen. meriana c. coopera;.;missing;block;to_completion;.;0;0;0;0;0;0;0;0;0;0;1;1;1;0;0;0;0;0;missing;52.23824636958341;https://www.otodom.pl/oferta/mieszkanie-dwupokojowe-z-widna-kuchnia-ID3KX7V.html;20.89285767354126;primary;0;0;0;True;missing;281;421095.0;PLN;10;.;2;0;0;0;0;0;0;0;52;5;missing;.;jelonki pó³nocne;groundfloor;3;8097.9807692307695;1.0;1.0;1.0;1.0;1.0;55519384
wola;warszawa;ko³o;aleja prymasa tysi¹clecia;.;other;block;missing;.;0;0;0;0;0;0;0;1;0;0;0;0;1;0;0;0;0;0;urban;52.2389114;https://www.otodom.pl/oferta/parki-warszawy-cesja-6p-ID3Ko60.html;20.9561244;secondary;1;0;0;True;full_ownership;390;309240.0;PLN;15;.;2;0;0;1;1;1;0;0;34;13;missing;2019;ko³o;6;14;9095.29411764706;0.0;0.0;0.0;0.0;0.0;55384724
bia³o³êka;warszawa;henryków;klasyków;.;missing;apartment;to_completion;.;0;0;0;0;0;0;0;1;0;0;1;0;0;0;0;0;0;0;missing;52.335143;https://www.otodom.pl/oferta/swietny-rozklad-mieszkanie-z-dwoma-balkonami-ID3L8iE.html;20.9758045;primary;0;0;0;True;missing;146;538400.0;PLN;6;.;3;0;0;1;0;1;0;0;72;6;missing;.;henryków;2;3;7477.777777777777;1.0;1.0;1.0;1.0;1.0;55562332
bia³o³êka;warszawa;¿erañ;marywilska;.;missing;block;to_completion;.;0;0;0;0;0;0;0;1;0;0;1;0;1;0;0;0;0;1;missing;52.31865546952844;https://www.otodom.pl/oferta/mieszkanie-2-pokojowe-stan-deweloperski-b-156-ID3F6AA.html;20.998839439086904;primary;1;1;1;True;missing;769;272901.0;PLN;15;.;2;0;0;1;1;1;0;0;41;14;missing;2019;¿erañ;2;5;6656.121951219512;0.0;0.0;0.0;0.0;0.0;54125788
bia³o³êka;warszawa;szamocin;p³ochociñska;.;brick;block;to_completion;.;0;0;0;0;0;0;0;0;0;0;1;1;0;1;0;0;0;0;missing;52.3373263;https://www.otodom.pl/oferta/przestronna-kawalerka-ogrodek-stan-deweloperski-ID3z2QD.html;21.0291839;primary;0;0;0;True;missing;1174;225567.0;PLN;15;.;1;0;0;1;1;1;0;0;34;15;missing;2018;szamocin;groundfloor;5;6634.323529411765;1.0;1.0;1.0;1.0;1.0;52681439
praga pó³noc;warszawa;nowa praga;konopacka;2019-12-31;other;apartment;missing;.;0;0;0;0;0;0;0;1;0;0;1;0;1;0;0;0;0;1;urban;52.25996;https://www.otodom.pl/oferta/konopacka-nowopowstajacy-budynek-ID3HTxS.html;21.03814;primary;1;1;0;True;full_ownership;260;326636.0;PLN;15;.;1;0;1;0;1;1;0;0;33;2;missing;2019;nowa praga;5;5;9898.060606060606;0.0;0.0;0.0;0.0;0.0;54790632
bia³o³êka;warszawa;grodzisk;kartograficzna;.;missing;block;missing;.;0;0;0;0;0;0;0;0;0;0;0;1;0;0;0;0;0;0;urban;52.3127422;https://www.otodom.pl/oferta/mieszkanie-56-65-m-warszawa-ID3L9YE.html;21.0729753;secondary;0;0;0;True;full_ownership;198;386000.0;PLN;6;590.0;3;0;0;1;1;0;0;0;57;6;plastic;2010;grodzisk;groundfloor;2;6771.929824561404;9.0;9.0;9.0;9.0;9.0;55568780
mokotów;warszawa;s³u¿ew;niegociñska;.;concrete_plate;missing;ready_to_use;.;0;0;0;0;0;0;0;1;0;0;0;0;1;0;0;0;0;0;missing;52.1743785;https://www.otodom.pl/oferta/2pokojowe-balkon-mokotow-lokalizacja-ID3KPhu.html;21.0082934;secondary;0;0;0;True;cooperative_ownership;269;379000.0;PLN;11;350.0;2;0;0;0;0;0;0;0;37;1;missing;1970;s³u¿ew;5;10;10243.243243243243;49.0;49.0;49.0;49.0;49.0;55489224
ochota;warszawa;szczêœliwice;w³odarzewska;.;missing;block;missing;.;0;0;0;0;0;0;0;0;0;0;1;1;0;0;0;0;0;0;urban;52.2021313;https://www.otodom.pl/oferta/mieszkanie-60-50-m-warszawa-ID3L9NO.html;20.9554848;secondary;0;0;0;True;cooperative_ownership;132;670000.0;PLN;6;.;2;0;0;1;1;0;0;0;60;6;plastic;1999;szczêœliwice;groundfloor;3;11166.666666666666;20.0;20.0;20.0;20.0;20.0;55568108
targówek;warszawa;bródno-podgrodzie;g³êbocka;.;missing;apartment;to_completion;.;0;0;0;0;0;0;0;0;0;0;1;0;1;0;0;0;0;0;missing;52.3102751;https://www.otodom.pl/oferta/kawalerka-w-spokojnej-okolicy-ID3Lip6.html;21.0620732;primary;0;0;0;True;full_ownership;125;257895.0;PLN;4;.;1;0;1;1;1;1;0;0;34;4;missing;.;bródno-podgrodzie;1;3;7585.14705882353;1.0;1.0;1.0;1.0;1.0;55601172
mokotów;warszawa;sielce;.;.;missing;apartment;missing;.;0;0;0;0;0;0;0;1;1;0;1;0;1;0;0;0;0;0;urban;52.194157;https://www.otodom.pl/oferta/apartamenty-dla-wymagajacych-bez-prowizji-ID3Jql6.html;21.0346955;secondary;0;0;0;False;full_ownership;612;774160.0;PLN;15;.;4;0;0;0;1;1;0;0;74;7;wooden;2019;sielce;1;6;10461.621621621622;0.0;0.0;0.0;0.0;0.0;55155020
œródmieœcie;warszawa;muranów;s³omiñskiego zygmunta;.;reinforced_concrete;apartment;ready_to_use;.;0;0;0;0;0;0;0;0;0;0;0;0;1;0;0;0;0;0;urban;52.2570765;https://www.otodom.pl/oferta/mieszkanie-125m2-na-warszawskim-srodmiesciu-ID3KFNy.html;20.9941809;secondary;0;0;0;False;full_ownership;388;1379000.0;PLN;14;1150.0;4;0;0;0;0;1;0;0;126;3;missing;2008;muranów;4;22;10944.444444444445;11.0;11.0;11.0;11.0;11.0;55452772
bia³o³êka;warszawa;grodzisk;pod³u¿na;.;brick;block;ready_to_use;.;0;0;0;0;0;0;0;1;0;1;1;0;0;1;0;0;0;0;urban;52.3205907;https://www.otodom.pl/oferta/mieszkanie-56-72-m-warszawa-ID3KmAv.html;21.0708649;secondary;1;1;0;True;missing;364;365000.0;PLN;15;500.0;3;0;0;0;0;1;0;0;57;2;plastic;2013;grodzisk;2;2;6403.508771929824;6.0;6.0;6.0;6.0;6.0;55378928
bia³o³êka;warszawa;henryków;klasyków;.;missing;block;to_completion;.;0;0;0;0;0;0;0;0;0;0;1;0;1;1;0;0;0;1;urban;52.23614;https://www.otodom.pl/oferta/nowe-kameralne-osiedle-36m2-1-2-pok-taras-ogrodek-ID3IImg.html;21.00817;primary;1;1;1;True;full_ownership;2256;281500.0;PLN;15;.;1;0;0;0;0;1;0;0;36;15;plastic;2019;henryków;groundfloor;3;7819.444444444444;0.0;0.0;0.0;0.0;0.0;54985956
mokotów;warszawa;stegny;aleja gen. w³adys³awa sikorskiego;.;brick;apartment;to_completion;.;0;0;0;0;0;0;0;1;0;0;1;0;1;1;0;0;0;0;urban;52.1855179;https://www.otodom.pl/oferta/apartament-173-m2-na-stegnach-ID3JKlG.html;21.0439508;secondary;0;0;0;True;full_ownership;615;1130000.0;PLN;15;1252.5;6;0;1;1;1;1;0;0;173;1;plastic;2012;stegny;4;6;6531.791907514451;7.0;7.0;7.0;7.0;7.0;55231936
œródmieœcie;warszawa;muranów;zamenhofa ludwika;.;brick;tenement;to_renovation;.;0;0;0;0;0;0;0;0;0;0;0;0;0;0;0;0;0;0;missing;52.23614;https://www.otodom.pl/oferta/mieszkanie-50-77-m-warszawa-ID3IFVI.html;21.00817;secondary;0;0;0;False;missing;340;560000.0;PLN;15;580.0;2;0;0;0;0;0;0;0;51;15;missing;1950;muranów;2;3;10980.392156862745;69.0;69.0;69.0;69.0;69.0;54976684
bia³o³êka;warszawa;.;.;2018-12-30;missing;apartment;missing;.;0;0;0;0;0;0;0;1;1;0;1;0;1;0;0;0;0;0;urban;52.3289879;https://www.otodom.pl/oferta/rewelacyjne-osiedle-na-bialolece-bez-prowizji-ID3J77q.html;21.0076792;secondary;0;0;0;False;missing;494;251116.0;PLN;15;.;2;0;0;0;1;0;0;0;44;12;plastic;2018;bia³o³êka;2;2;5707.181818181818;1.0;1.0;1.0;1.0;1.0;55081136
mokotów;warszawa;sielce;czerska;.;missing;apartment;missing;.;0;0;0;0;0;0;0;1;0;0;0;0;1;0;0;0;0;0;missing;52.2050359;https://www.otodom.pl/oferta/2-pokoje-w-nowym-budownictwie-na-sielcach-ID3ELcI.html;21.0455802;secondary;0;0;0;True;missing;1392;439000.0;PLN;15;400.0;2;0;0;0;0;1;0;0;43;15;plastic;2006;sielce;2;8;10209.302325581395;13.0;13.0;13.0;13.0;13.0;54043584
mokotów;warszawa;s³u¿ewiec;cybernetyki;.;missing;apartment;ready_to_use;.;0;0;0;0;0;0;0;1;0;1;1;0;1;0;0;0;0;0;urban;52.1763413;https://www.otodom.pl/oferta/okazja-mieszkanie-2-pokojowe-mokotow-na-sprzedaz-ID3LcUY.html;21.0001075;secondary;1;1;1;True;full_ownership;173;460000.0;PLN;5;280.0;2;0;0;0;0;0;0;0;38;3;plastic;2018;s³u¿ewiec;5;9;12105.263157894737;1.0;1.0;1.0;1.0;1.0;55580084
w³ochy;warszawa;stare w³ochy;aleje jerozolimskie;.;reinforced_concrete;block;to_renovation;.;0;0;0;0;0;0;0;1;1;0;0;0;1;1;0;0;0;0;missing;52.2225771;https://www.otodom.pl/oferta/trzy-pokoje-al-jerozolimskie-dobra-oferta-ID3IUS0.html;20.9830484;secondary;0;0;0;True;cooperative_ownership_with_mortgage_register;4275;425000.0;PLN;15;526.0;3;0;0;0;0;0;0;0;45;15;plastic;1967;stare w³ochy;3;10;9444.444444444445;52.0;52.0;52.0;52.0;52.0;55034052
w³ochy;warszawa;.;.;.;brick;block;missing;.;0;0;0;0;0;0;0;1;0;0;0;0;1;0;0;0;0;0;gas;52.1799062;https://www.otodom.pl/oferta/bardzo-ladne-rozkladowe-2-pokoje-55m2-w-wa-wlochy-ID3Ilze.html;20.9478161;secondary;0;1;0;False;missing;348;419900.0;PLN;15;.;2;0;1;0;1;0;0;0;55;3;plastic;2007;w³ochy;2;4;7634.545454545455;12.0;12.0;12.0;12.0;12.0;54898348
targówek;warszawa;targówek mieszkaniowy;smoleñska;2018-08-24;missing;apartment;missing;.;0;0;0;0;0;0;0;1;1;0;1;0;1;0;0;0;0;0;urban;52.2690354;https://www.otodom.pl/oferta/piekne-mieszkanie-o-pow-57m2-3-minuty-od-metra-ID3Kvzm.html;21.0462876;secondary;0;0;0;True;full_ownership;418;510000.0;PLN;15;420.0;2;1;0;1;1;0;0;0;57;15;plastic;2017;targówek mieszkaniowy;3;8;8947.368421052632;2.0;2.0;2.0;2.0;2.0;55417296
praga po³udnie;warszawa;.;.;.;other;apartment;to_completion;.;0;0;0;0;0;0;0;1;0;0;1;0;1;0;0;0;0;0;urban;52.24168;https://www.otodom.pl/oferta/przestronny-apartament-z-dwoma-balkonami-ID3KcXO.html;21.08406;primary;0;0;0;False;missing;418;700178.0;PLN;15;.;4;0;0;0;1;1;0;0;80;9;missing;.;praga po³udnie;7;7;8752.225;1.0;1.0;1.0;1.0;1.0;55341932
wilanów;warszawa;wilanów wysoki;.;.;missing;house;missing;.;0;0;0;0;0;0;0;0;0;0;1;1;0;0;0;1;1;0;gas;52.17153;https://www.otodom.pl/oferta/ekskluzywnie-i-kameralnie-stary-wilanow-ID3JMUA.html;21.07901;primary;0;0;0;False;full_ownership;561;2200000.0;PLN;15;.;6;0;0;0;0;0;0;0;194;13;missing;2017;wilanów wysoki;groundfloor;missing;11340.20618556701;2.0;2.0;2.0;2.0;2.0;55241788
wilanów;warszawa;.;.;.;missing;apartment;ready_to_use;.;0;0;0;0;0;0;0;1;0;0;1;0;1;0;0;0;0;0;urban;52.15613;https://www.otodom.pl/oferta/bezposrednio-nowe-garaz-ID3LpSv.html;21.11163;secondary;0;0;0;False;full_ownership;349;799000.0;PLN;3;600.0;3;0;0;0;0;0;0;0;71;3;missing;2018;wilanów;2;4;11253.521126760563;1.0;1.0;1.0;1.0;1.0;55629904
wola;warszawa;ulrychów;.;.;missing;missing;missing;.;0;0;0;0;0;0;0;0;0;0;0;0;0;0;0;0;0;0;missing;52.23956;https://www.otodom.pl/oferta/ekskluzywne-49m2-wola-ul-pustola-36b-tylko-u-nas-ID3Heti.html;20.93632;secondary;0;0;0;False;full_ownership;5276;468000.0;PLN;15;490.0;3;0;0;0;0;0;0;0;49;13;missing;1982;ulrychów;1;4;9551.020408163266;37.0;37.0;37.0;37.0;37.0;54632744
bia³o³êka;warszawa;brzeziny;magiczna;.;missing;block;ready_to_use;.;0;0;0;0;0;0;0;1;1;0;1;0;1;0;0;0;0;1;urban;52.315092;https://www.otodom.pl/oferta/magiczne-2-pokoje-na-bialolece-ID3Ja1G.html;21.062264;secondary;1;1;1;True;full_ownership;378;410000.0;PLN;15;560.0;2;0;0;0;0;1;0;0;54;11;plastic;2011;brzeziny;3;3;7592.592592592592;8.0;8.0;8.0;8.0;8.0;55092312
mokotów;warszawa;wyglêdów;malawskiego artura;.;concrete_plate;missing;ready_to_use;.;0;0;0;0;0;0;0;0;1;0;0;0;1;0;0;0;0;0;urban;52.19832;https://www.otodom.pl/oferta/polecam-3-pokoje-ul-malawskiego-ID3IiRG.html;21.01715;secondary;0;0;0;False;cooperative_ownership;2990;380000.0;PLN;15;.;3;0;0;0;1;0;0;0;49;15;missing;1972;wyglêdów;groundfloor;10;7755.102040816327;47.0;47.0;47.0;47.0;47.0;54887960
mokotów;warszawa;sielce;bobrowiecka;.;other;apartment;to_completion;.;0;0;0;0;0;0;0;1;0;0;1;0;1;0;0;0;0;0;missing;52.1986108;https://www.otodom.pl/oferta/apartament-z-dwoma-duzymi-balkonami-mokotow-ID3LkYs.html;21.0464264;primary;0;0;0;True;missing;124;1189770.0;PLN;4;.;4;0;1;1;1;1;0;0;99;2;missing;.;sielce;4;6;12017.878787878788;1.0;1.0;1.0;1.0;1.0;55611052
bemowo;warszawa;.;.;.;brick;block;ready_to_use;.;0;0;0;0;0;0;0;0;0;0;0;0;1;0;0;0;0;0;urban;52.24091;https://www.otodom.pl/oferta/kawalerka-29m2-z-ogrodkiem-bemowo-ID3JoI0.html;20.91133;secondary;1;1;1;False;full_ownership;543;297000.0;PLN;15;.;1;0;0;0;0;1;0;0;29;8;plastic;2017;bemowo;groundfloor;4;10241.379310344828;2.0;2.0;2.0;2.0;2.0;55148752
praga pó³noc;warszawa;nowa praga;.;2018-09-07;brick;tenement;ready_to_use;.;0;0;1;1;0;0;0;0;1;0;0;0;0;1;0;0;0;0;urban;52.26151;https://www.otodom.pl/oferta/plac-hallera-kamienica-tuz-obok-metra-ID3Lrje.html;21.0339;secondary;0;0;0;False;full_ownership;372;429000.0;PLN;3;395.0;3;0;0;0;1;1;0;0;39;2;plastic;1950;nowa praga;1;4;11000.0;69.0;69.0;69.0;69.0;69.0;55635404
œródmieœcie;warszawa;nowe miasto;dymiñska;.;missing;block;ready_to_use;.;0;0;0;0;0;0;0;0;0;0;0;0;1;0;0;0;0;0;urban;52.2611122;https://www.otodom.pl/oferta/mieszkanie-25-m-warszawa-ID3KYFi.html;20.9975701;secondary;0;0;0;True;full_ownership;380;270000.0;PLN;9;.;1;0;0;0;0;0;0;0;25;2;plastic;1970;nowe miasto;3;11;10800.0;49.0;49.0;49.0;49.0;49.0;55525296
praga pó³noc;warszawa;stara praga;z¹bkowska;.;missing;tenement;missing;.;0;0;0;0;0;0;0;0;0;0;0;0;0;0;0;0;0;0;missing;52.254848766856;https://www.otodom.pl/oferta/pokoj-z-antresola-na-pradze-polnoc-ID3IF6M.html;21.043592519019;secondary;0;0;0;False;missing;498;318999.0;PLN;15;.;1;0;0;0;0;0;0;0;30;15;missing;1907;stara praga;groundfloor;6;10633.3;112.0;112.0;112.0;112.0;112.0;54973464
ursynów;warszawa;ursynów pó³nocny;lachmana wac³awa;.;concrete_plate;block;missing;.;0;0;0;0;0;0;0;1;1;0;1;0;0;0;0;0;0;0;urban;52.1561;https://www.otodom.pl/oferta/ursynow-4-pokoje-super-mieszkanie-ID3KF8Q.html;21.04066;secondary;0;0;0;False;cooperative_ownership;348;560000.0;PLN;14;.;4;0;1;0;1;0;0;0;72;14;missing;1981;ursynów pó³nocny;3;4;7777.777777777777;38.0;38.0;38.0;38.0;38.0;55450248
bia³o³êka;warszawa;henryków;klasyków;.;missing;apartment;to_completion;.;0;0;0;0;0;0;0;1;0;0;1;0;0;0;0;0;0;0;missing;52.335143;https://www.otodom.pl/oferta/mozliwosc-wydzielenia-kuchni-garderoba-65m2-ID3L8ti.html;20.9758045;primary;0;0;0;True;missing;125;508200.0;PLN;6;.;3;0;0;1;0;1;0;0;65;6;missing;.;henryków;3;3;7818.461538461538;1.0;1.0;1.0;1.0;1.0;55562992
¿oliborz;warszawa;stary ¿oliborz;bitwy pod rokitn¹;.;brick;apartment;to_completion;.;0;0;0;0;0;0;0;1;0;1;1;0;1;0;0;0;0;1;urban;52.2632422;https://www.otodom.pl/oferta/apartament-do-wlasnej-aranzacji-na-zoliborzu-ID3IgSc.html;20.986075;secondary;1;1;1;True;full_ownership;372;2670000.0;PLN;15;.;3;0;0;0;0;1;0;0;120;5;wooden;2003;stary ¿oliborz;7;8;22250.0;16.0;16.0;16.0;16.0;16.0;54880304
praga po³udnie;warszawa;goc³aw;nowaka-jeziorañskiego jana;.;reinforced_concrete;block;ready_to_use;.;1;1;1;1;1;1;0;1;0;1;1;0;1;0;0;0;0;1;urban;52.2300831223034;https://www.otodom.pl/oferta/2-pokoje41m2-nowoczesne-inteligentne-bezposrednio-ID3KARC.html;21.109412239608762;secondary;1;1;1;False;full_ownership;2606;485000.0;PLN;15;450.0;2;1;1;0;1;1;0;0;41;2;missing;2014;goc³aw;1;13;11829.268292682927;5.0;5.0;5.0;5.0;5.0;55433804
wola;warszawa;mirów;karolkowa;.;brick;tenement;to_completion;.;0;0;0;0;0;0;0;0;0;0;0;0;1;0;0;0;0;0;gas;52.2344281;https://www.otodom.pl/oferta/kawalerka-z-antresola-25-66m2-wola-ul-karolkowa-ID3L2gk.html;20.976939;secondary;1;1;0;True;full_ownership;774;256600.0;PLN;7;.;1;0;0;0;0;0;0;0;26;5;plastic;1935;mirów;1;5;9869.23076923077;84.0;84.0;84.0;84.0;84.0;55539124
œródmieœcie;warszawa;œródmieœcie pó³nocne;nowy œwiat;.;brick;tenement;ready_to_use;.;0;0;0;0;0;0;0;0;1;0;0;0;0;0;0;0;0;0;missing;52.23614;https://www.otodom.pl/oferta/mieszkanie-59-29-m-warszawa-ID3JSxS.html;21.00817;secondary;1;1;0;True;full_ownership;361;849900.0;PLN;15;650.0;2;0;0;0;0;0;0;0;59;15;plastic;1957;œródmieœcie pó³nocne;1;3;14405.084745762711;62.0;62.0;62.0;62.0;62.0;55263444
wawer;warszawa;zerzeñ;jeziorowa;.;brick;house;missing;.;0;0;0;0;0;0;0;1;0;0;1;0;0;0;0;0;1;0;other;52.19653;https://www.otodom.pl/oferta/wawer-las-nowe-osiedle-ogrodek-i-postoj-w-cenie-ID3KN3S.html;21.12863;primary;0;0;0;True;full_ownership;329;458053.0;PLN;12;.;4;0;1;1;1;0;0;0;78;12;missing;2019;zerzeñ;1;2;5872.474358974359;0.0;0.0;0.0;0.0;0.0;55480692
praga po³udnie;warszawa;goc³aw;pawlikowskiego mieczys³awa;.;aerated_concrete;apartment;to_completion;.;0;0;0;0;0;0;0;1;0;0;1;0;1;0;0;0;0;0;urban;52.22476890550453;https://www.otodom.pl/oferta/warszawa-goclaw-nowa-kawalarka-29-m2-garaz-ID3JUCk.html;21.07974250793457;secondary;1;1;1;False;cooperative_ownership_with_mortgage_register;1651;276500.0;PLN;15;.;1;0;1;1;1;1;0;0;29;12;plastic;2020;goc³aw;2;8;9534.48275862069;0.0;0.0;0.0;0.0;0.0;55271408
¿oliborz;warszawa;stary ¿oliborz;.;.;missing;block;missing;.;0;0;0;0;0;0;0;1;1;0;0;0;1;0;0;0;0;0;missing;52.269833;https://www.otodom.pl/oferta/mieszkanie-37-50-m-warszawa-ID3KkHO.html;20.97399;secondary;0;0;0;False;cooperative_ownership;419;370000.0;PLN;15;.;2;0;0;0;0;0;0;0;38;15;plastic;1975;stary ¿oliborz;1;10;9736.842105263158;44.0;44.0;44.0;44.0;44.0;55371692
praga po³udnie;warszawa;.;.;.;brick;missing;missing;.;0;0;0;0;0;0;0;0;0;0;0;0;0;0;0;0;0;0;missing;52.20556;https://www.otodom.pl/oferta/sprzedam-mieszaknie-na-pradze-ID3Kv6o.html;21.07452;secondary;0;0;0;False;missing;352;699000.0;PLN;15;590.0;2;0;0;0;0;0;0;0;57;10;missing;2005;praga po³udnie;5;6;12263.157894736842;14.0;14.0;14.0;14.0;14.0;55415500
wola;warszawa;.;.;2018-07-31;brick;apartment;ready_to_use;.;1;1;1;1;0;1;0;1;0;1;1;0;1;1;0;0;0;0;urban;52.23338;https://www.otodom.pl/oferta/apartament-w-sercu-woli-113-m-2-ID3J9O0.html;20.95718;secondary;1;1;1;False;full_ownership;1025;1320000.0;PLN;15;900.0;3;0;1;1;1;1;1;0;113;5;wooden;2000;wola;5;6;11681.41592920354;19.0;19.0;19.0;19.0;19.0;55091464
ochota;warszawa;.;.;.;missing;missing;missing;.;0;0;0;0;0;0;0;0;0;0;0;0;1;0;0;0;0;0;missing;52.197650273667;https://www.otodom.pl/oferta/duze-3pokoje-z-ogrodkiem-i-balkonem-ID3L5Fq.html;20.964807425332;primary;0;0;0;False;full_ownership;158;630087.0;PLN;6;.;3;0;0;0;1;0;0;0;72;6;missing;2019;ochota;1;8;8751.208333333334;0.0;0.0;0.0;0.0;0.0;55552212
praga po³udnie;warszawa;kamionek;¿upnicza;.;brick;apartment;ready_to_use;.;0;0;0;0;0;0;0;1;0;0;1;0;1;0;0;0;0;0;urban;52.25129686850582;https://www.otodom.pl/oferta/rewelacyjne-mieszkanie-w-soho-factory-ID3JYNy.html;21.06245927629684;secondary;1;1;1;True;full_ownership;446;659000.0;PLN;15;460.0;3;0;1;1;1;1;0;0;58;15;missing;2018;kamionek;1;10;11362.068965517241;1.0;1.0;1.0;1.0;1.0;55287480
wola;warszawa;odolany;cypriana kamila norwida;.;reinforced_concrete;block;to_completion;.;0;0;0;0;0;0;0;0;0;0;1;1;1;0;0;0;0;1;urban;52.231869334639185;https://www.otodom.pl/oferta/kawalerka-w-nowej-inwestycji-na-woli-ID3Lc3q.html;20.937287486224363;primary;1;1;0;True;missing;170;270418.0;PLN;5;.;1;0;0;1;1;1;0;0;30;4;plastic;.;odolany;4;11;9013.933333333332;1.0;1.0;1.0;1.0;1.0;55576764
mokotów;warszawa;stary mokotów;tadeusza boy-¿eleñskiego;.;brick;block;missing;.;0;0;0;0;0;0;0;0;0;0;0;0;0;0;0;0;0;0;missing;52.21;https://www.otodom.pl/oferta/mieszkanie-80-m-warszawa-ID3Il6c.html;21.02;secondary;0;0;0;False;missing;405;835000.0;PLN;15;.;3;0;0;0;0;0;0;0;80;4;missing;1938;stary mokotów;3;4;10437.5;81.0;81.0;81.0;81.0;81.0;54896548
bemowo;warszawa;bemowo-lotnisko;wolfkego mieczys³awa;.;brick;block;ready_to_use;.;0;0;0;0;0;0;0;1;1;0;1;0;1;1;0;0;0;0;urban;52.2563921;https://www.otodom.pl/oferta/do-sprzedania-3-pokojowe-mieszkanie-ID3LbiI.html;20.9261406;secondary;1;1;1;False;full_ownership;193;555000.0;PLN;5;700.0;3;0;1;0;1;0;0;0;71;5;missing;1999;bemowo-lotnisko;4;8;7816.901408450704;20.0;20.0;20.0;20.0;20.0;55573868
praga po³udnie;warszawa;saska kêpa;stanów zjednoczonych, al.;.;brick;block;missing;.;0;0;0;0;0;0;0;1;0;0;0;0;0;0;0;0;0;0;missing;52.24;https://www.otodom.pl/oferta/mieszkanie-71-m-warszawa-ID3HGMQ.html;21.08;secondary;0;0;0;False;missing;644;549000.0;PLN;15;.;3;0;0;0;0;0;0;0;71;6;plastic;2007;saska kêpa;3;9;7732.394366197183;12.0;12.0;12.0;12.0;12.0;54741588
wawer;warszawa;marysin wawerski;korkowa;2019-03-31;brick;apartment;missing;.;0;0;0;0;0;0;0;0;1;0;1;1;1;0;0;0;0;0;gas;52.2392449;https://www.otodom.pl/oferta/nowe-mieszkanie-z-60-metrowym-ogrodkiem-ID3ImO8.html;21.1525877;primary;0;0;0;True;full_ownership;460;433236.0;PLN;15;.;2;0;0;0;1;1;0;0;55;15;plastic;2019;marysin wawerski;groundfloor;3;7877.018181818182;0.0;0.0;0.0;0.0;0.0;54903116
mokotów;warszawa;wyglêdów;jana karola chodkiewicza;.;missing;apartment;missing;.;1;1;1;1;1;1;0;1;0;1;1;0;1;1;0;1;0;0;missing;52.19832;https://www.otodom.pl/oferta/sprzedma-apartament-3-pokojowy-w-eco-parku-ID3I0xa.html;21.01715;secondary;0;0;0;True;missing;525;1149000.0;PLN;15;950.0;3;1;1;1;1;1;0;0;83;15;missing;2007;wyglêdów;3;4;13843.373493975903;12.0;12.0;12.0;12.0;12.0;54817496
bia³o³êka;warszawa;.;.;.;missing;block;missing;.;0;0;0;0;0;0;0;0;1;0;0;0;0;0;0;0;0;0;missing;52.321989;https://www.otodom.pl/oferta/sloneczne-dwupoziomowe-super-cena-ID3IMQ4.html;20.95638;secondary;0;0;0;False;missing;540;639000.0;PLN;15;.;4;0;0;0;0;0;0;0;132;15;missing;2018;bia³o³êka;3;4;4840.909090909091;1.0;1.0;1.0;1.0;1.0;55003180
praga pó³noc;warszawa;.;.;.;missing;block;missing;.;0;0;0;0;0;0;0;1;0;0;0;0;1;0;0;0;0;0;missing;52.2633;https://www.otodom.pl/oferta/mieszkanie-46-72-m-warszawa-ID3I3Rq.html;21.02832;primary;0;0;0;False;full_ownership;416;406368.0;PLN;15;.;2;0;0;0;1;0;0;0;47;6;missing;2020;praga pó³noc;1;6;8646.127659574468;0.0;0.0;0.0;0.0;0.0;54830284
ochota;warszawa;stara ochota;.;.;brick;tenement;missing;.;0;0;0;0;0;0;0;1;1;0;0;0;0;0;0;0;0;0;missing;52.21739;https://www.otodom.pl/oferta/3-pokoje-wysoki-standard-kamienica-ID3Lm7m.html;20.97525;secondary;0;0;0;False;full_ownership;133;950000.0;PLN;4;420.0;3;0;0;0;0;1;0;0;73;4;plastic;1952;stara ochota;2;5;13013.698630136987;67.0;67.0;67.0;67.0;67.0;55615448
wola;warszawa;nowolipki;aleja „solidarnoœci”;.;concrete_plate;block;missing;.;0;0;0;0;0;0;0;1;0;0;0;0;0;0;0;0;0;0;missing;52.24;https://www.otodom.pl/oferta/mieszkanie-56-70-m-warszawa-ID3KvTq.html;20.99;secondary;0;0;0;False;missing;312;490000.0;PLN;15;.;3;0;0;0;0;0;0;0;57;5;plastic;1967;nowolipki;3;11;8596.491228070176;52.0;52.0;52.0;52.0;52.0;55418540
praga pó³noc;warszawa;nowa praga;linneusza karola;.;brick;tenement;to_completion;.;0;0;0;0;0;0;0;0;1;0;0;0;0;1;0;0;0;0;urban;52.2629339;https://www.otodom.pl/oferta/ciche-sloneczne-i-przestronne-2-pok-mieszkanie-ID3IxHO.html;21.0247342;secondary;0;0;0;False;full_ownership;793;359000.0;PLN;15;500.0;2;0;0;0;0;0;0;0;51;10;plastic;1953;nowa praga;4;4;7039.21568627451;66.0;66.0;66.0;66.0;66.0;54945008
bemowo;warszawa;.;.;.;missing;missing;missing;.;0;0;0;0;0;0;0;0;0;0;0;0;1;0;0;0;0;0;missing;52.24091;https://www.otodom.pl/oferta/3-pokoje-z-widna-kuchnia-na-bemowie-ID3Knx2.html;20.91133;secondary;1;1;1;False;missing;675;370000.0;PLN;15;.;3;0;0;0;0;0;0;0;49;14;missing;1978;bemowo;4;9;7551.0204081632655;41.0;41.0;41.0;41.0;41.0;55382556
wola;warszawa;odolany;jana kazimierza;.;missing;missing;missing;.;0;0;0;0;0;0;0;0;0;0;1;0;1;0;0;0;0;0;missing;52.22467;https://www.otodom.pl/oferta/3-pok-wola-taras-17m-ID3JnxO.html;20.94602;secondary;0;0;0;True;missing;894;549000.0;PLN;15;.;3;0;0;0;0;0;0;0;58;5;missing;2018;odolany;4;6;9465.51724137931;1.0;1.0;1.0;1.0;1.0;55144276
œródmieœcie;warszawa;.;.;.;missing;missing;missing;.;0;0;0;0;0;0;0;0;0;0;1;0;1;0;0;0;0;0;urban;52.228367;https://www.otodom.pl/oferta/2-pokojowy-apartamnet-w-samym-centrum-miasta-ID3HD6Y.html;20.99735;primary;1;1;1;False;full_ownership;268;956887.0;PLN;15;.;2;0;0;0;0;0;0;0;63;7;aluminium;2018;œródmieœcie;3;8;15188.682539682539;1.0;1.0;1.0;1.0;1.0;54727460
bia³o³êka;warszawa;¿erañ;morelowa;.;brick;block;to_completion;.;0;0;0;0;0;0;0;1;1;0;0;0;0;0;0;0;0;0;urban;52.3068501;https://www.otodom.pl/oferta/sloneczne-3pokoje-25-minut-od-centrum-ID3KDwC.html;20.9876096;secondary;0;0;0;True;full_ownership;377;399000.0;PLN;14;455.0;3;0;0;1;1;1;0;0;70;14;missing;.;¿erañ;2;3;5700.0;.;8.577540106951872;45.0;8.0;1.0;55443972
praga pó³noc;warszawa;nowa praga;in¿ynierska;.;missing;block;missing;.;0;0;0;0;0;0;0;1;1;0;0;0;0;0;0;0;0;0;urban;52.257729;https://www.otodom.pl/oferta/mieszkanie-48-55-m-warszawa-ID3L9VE.html;21.0357472;secondary;0;0;0;True;full_ownership;140;399000.0;PLN;6;350.0;2;0;0;0;1;0;0;0;49;6;plastic;1912;nowa praga;3;4;8142.857142857143;107.0;107.0;107.0;107.0;107.0;55568656
praga po³udnie;warszawa;goc³awek;.;2018-08-23;missing;apartment;to_completion;.;0;0;0;0;0;0;0;1;0;0;1;0;1;0;0;0;0;0;gas;52.23816;https://www.otodom.pl/oferta/kameralnie-na-goclawku-ID3KtA0.html;21.11933;primary;1;1;1;False;full_ownership;449;491209.0;PLN;15;.;3;0;1;1;1;1;0;0;62;7;wooden;2018;goc³awek;2;3;7922.725806451613;1.0;1.0;1.0;1.0;1.0;55405804
praga po³udnie;warszawa;grochów;wiatraczna;.;missing;missing;to_completion;.;0;0;0;0;0;0;0;1;0;0;0;0;1;0;0;0;0;0;missing;52.2453919;https://www.otodom.pl/oferta/mieszkanie-37-01-m-warszawa-ID3L59V.html;21.0845187;primary;0;0;0;True;missing;165;320136.0;PLN;7;.;2;0;0;0;0;0;0;0;37;7;missing;.;grochów;3;5;8652.324324324325;1.0;1.0;1.0;1.0;1.0;55550260
mokotów;warszawa;.;.;2019-08-01;other;apartment;to_completion;.;0;0;0;0;0;0;0;1;0;0;1;0;1;1;0;1;0;0;urban;52.19832;https://www.otodom.pl/oferta/mieszkanie-od-dewelopera-z-50m2-tarasem-loggia-ID3L48U.html;21.01715;primary;0;1;1;False;full_ownership;236;788000.0;PLN;7;450.0;4;0;0;0;1;1;0;0;95;7;plastic;2019;mokotów;7;7;8294.736842105263;0.0;0.0;0.0;0.0;0.0;55546352
œródmieœcie;warszawa;œródmieœcie po³udniowe;ho¿a;.;brick;tenement;to_renovation;.;0;0;0;0;0;0;0;1;1;0;0;0;0;1;0;0;0;0;urban;52.227224;https://www.otodom.pl/oferta/w-poblizu-placu-trzech-krzyzy-ID3JAD2.html;21.020962;secondary;1;1;1;True;full_ownership;183;600000.0;PLN;15;750.0;2;0;0;0;0;0;0;0;49;2;wooden;1939;œródmieœcie po³udniowe;1;4;12244.897959183674;80.0;80.0;80.0;80.0;80.0;55194572
bielany;.;piaski;zgrupowania ak ¿mija;2018-07-20;missing;block;ready_to_use;.;1;1;1;1;0;0;1;1;1;0;1;0;0;1;0;0;0;0;urban;52.26839183660704;https://www.otodom.pl/oferta/bielany-kameralne-zamkniete-osiedle-ID3FTRm.html;20.938387314341696;secondary;1;1;1;False;full_ownership;2840;651000.0;PLN;15;600.0;3;0;1;1;1;1;0;0;103;13;wooden;.;piaski;3;3;6320.388349514563;.;34.2;9.0;39.0;35.0;54315184
ursynów;warszawa;natolin;przy ba¿antarni;2018-04-19;missing;block;missing;.;0;0;0;0;0;0;0;1;0;0;1;0;0;0;0;0;0;1;missing;52.13668;https://www.otodom.pl/oferta/warszawa-ursynow-4pokoje-85m2-metro-okazja-ID3Izwm.html;21.06135;secondary;0;0;0;True;full_ownership;699;999000.0;PLN;15;.;4;0;0;0;0;0;0;0;85;15;missing;2017;natolin;3;7;11752.941176470587;2.0;2.0;2.0;2.0;2.0;54951924
œródmieœcie;warszawa;œródmieœcie po³udniowe;œniadeckich;.;brick;tenement;ready_to_use;.;1;1;1;1;0;0;0;1;0;1;0;0;1;0;0;0;0;0;urban;52.220854;https://www.otodom.pl/oferta/mieszkanie-73-20-m-warszawa-ID3L4Dm.html;21.01381;secondary;1;1;1;True;full_ownership;211;890000.0;PLN;7;766.0;3;1;0;1;1;0;0;0;73;5;plastic;1955;œródmieœcie po³udniowe;2;5;12191.780821917808;64.0;64.0;64.0;64.0;64.0;55548240
wola;warszawa;.;.;.;other;apartment;to_completion;.;0;0;0;0;0;0;0;0;0;0;1;0;1;0;0;0;0;0;missing;52.2332539;https://www.otodom.pl/oferta/swietny-rozklad-blisko-stacji-metra-i-parkow-ID3LocA.html;20.9412648;primary;0;0;0;False;missing;189;448149.0;PLN;3;.;3;0;1;1;1;1;0;0;58;2;missing;.;wola;3;10;7726.706896551724;1.0;1.0;1.0;1.0;1.0;55623460
œródmieœcie;warszawa;muranów;.;.;brick;tenement;missing;.;0;0;0;0;0;0;0;0;0;0;0;0;0;0;0;0;0;0;missing;52.2502951;https://www.otodom.pl/oferta/niski-czynsz-metro-kamienica-ID3KMoo.html;20.98843575;secondary;0;0;0;False;missing;321;349000.0;PLN;12;240.0;1;0;0;0;0;0;0;0;29;12;missing;1952;muranów;3;3;12034.48275862069;67.0;67.0;67.0;67.0;67.0;55478120
ursynów;warszawa;natolin;¿abiñskiego jana;.;missing;block;ready_to_use;.;0;0;0;0;0;0;0;1;1;0;0;0;1;0;0;0;0;0;missing;52.1374513;https://www.otodom.pl/oferta/mieszkanie-52-50-m-warszawa-ID3Lt9K.html;21.0578121;secondary;1;1;0;False;cooperative_ownership_with_mortgage_register;71;459000.0;PLN;2;500.0;3;0;0;0;0;0;0;0;52;2;plastic;1987;natolin;1;10;8826.923076923076;32.0;32.0;32.0;32.0;32.0;55642504
mokotów;warszawa;sielce;bobrowiecka;.;other;apartment;to_completion;.;0;0;0;0;0;0;0;1;0;0;1;0;1;0;0;0;0;0;missing;52.19832;https://www.otodom.pl/oferta/okolica-lazienek-krolewskich-2-pokoje-balkon-8m2-ID3JUXi.html;21.01715;primary;0;0;0;True;full_ownership;297;522560.0;PLN;15;.;2;0;1;0;1;1;0;0;48;5;wooden;.;sielce;1;6;10886.666666666666;1.0;1.0;1.0;1.0;1.0;55272708
bia³o³êka;warszawa;.;.;.;missing;missing;missing;.;0;0;0;0;0;0;0;0;0;0;0;0;0;0;0;0;0;0;missing;52.3415853;https://www.otodom.pl/oferta/bezposrednio-2pok-ogrodek-50m2-gotowe-lokale-ID3Lge0.html;21.0662461;primary;0;0;0;False;missing;162;231000.0;PLN;5;.;2;0;0;0;0;0;0;0;34;4;missing;2018;bia³o³êka;1;missing;6794.117647058823;1.0;1.0;1.0;1.0;1.0;55592796
ursynów;warszawa;stary imielin;makol¹gwy;.;missing;missing;missing;.;0;0;0;0;0;0;0;0;0;0;0;0;0;0;0;0;0;0;missing;52.1448928;https://www.otodom.pl/oferta/mieszkanie-44-m-warszawa-ID3LteU.html;21.0259693;secondary;0;0;0;True;missing;109;390000.0;PLN;2;.;2;0;0;0;0;0;0;0;44;2;missing;1998;stary imielin;3;4;8863.636363636364;21.0;21.0;21.0;21.0;21.0;55642824
bemowo;warszawa;bemowo-lotnisko;wroc³awska;.;missing;missing;missing;.;0;0;0;0;0;0;0;1;0;0;1;0;0;0;0;0;0;0;missing;52.2481;https://www.otodom.pl/oferta/3-pok-osiedle-bemowo-park-ID3JJFa.html;20.92111;secondary;0;0;0;True;full_ownership;537;540000.0;PLN;15;.;3;0;0;0;0;0;0;0;63;1;missing;2005;bemowo-lotnisko;2;4;8571.42857142857;14.0;14.0;14.0;14.0;14.0;55229300
wola;warszawa;ulrychów;sowiñskiego józefa;.;missing;missing;missing;.;0;0;0;0;0;0;0;0;0;0;0;0;0;0;0;0;0;0;missing;52.23338;https://www.otodom.pl/oferta/na-woli-h-5-0-1-ID3JGCQ.html;20.95718;primary;0;0;0;False;missing;1490;456036.0;PLN;15;.;3;0;0;0;0;0;0;0;57;2;missing;.;ulrychów;groundfloor;missing;8000.631578947368;1.0;1.0;1.0;1.0;1.0;55217624
ursynów;warszawa;natolin;ma³ej ³¹ki;.;brick;block;missing;.;0;0;0;0;0;0;0;1;1;0;1;0;0;0;0;0;0;0;urban;52.1364611;https://www.otodom.pl/oferta/piekne-2-poziomowe-mieszkanie-z-garazem-i-piwnica-ID3JUVQ.html;21.0528349;secondary;1;1;1;True;missing;401;998000.0;PLN;15;1000.0;5;0;0;0;0;0;0;0;128;5;missing;1998;natolin;2;2;7796.875;21.0;21.0;21.0;21.0;21.0;55272680
œródmieœcie;warszawa;œródmieœcie po³udniowe;olszewska;2018-08-30;concrete;apartment;ready_to_use;.;0;0;0;0;0;0;0;1;0;0;0;0;1;0;0;0;0;0;urban;52.20918698753036;https://www.otodom.pl/oferta/nowe-mieszkanie-przy-ul-olszewskiej-2-pokoje-ID3KRTm.html;21.022893020909684;secondary;1;1;1;True;full_ownership;258;790000.0;PLN;11;600.0;2;0;0;0;1;1;0;0;47;10;wooden;2015;œródmieœcie po³udniowe;2;4;16808.510638297874;4.0;4.0;4.0;4.0;4.0;55499260
rembertów;warszawa;nowy rembertów;rzeczypospolitej;.;other;apartment;missing;.;0;0;0;0;0;0;0;0;0;0;1;0;1;0;0;1;0;0;urban;52.1610058;https://www.otodom.pl/oferta/mieszkanie-74-91-m-warszawa-ID3Kvr6.html;21.0717183;secondary;0;1;0;True;full_ownership;327;840000.0;PLN;15;713.0;3;0;1;1;1;1;0;0;75;15;missing;2018;nowy rembertów;4;4;11200.0;1.0;1.0;1.0;1.0;1.0;55416784
wilanów;warszawa;wilanów królewski;kostki-potockiego stanis³awa;.;brick;apartment;ready_to_use;.;0;0;0;0;0;0;0;0;0;0;1;0;1;0;0;0;0;0;urban;52.1605845;https://www.otodom.pl/oferta/4-pokojowe-mieszkanie-w-rezydencji-krolewskiej-ID3L9l2.html;21.0893074;secondary;1;1;1;False;full_ownership;211;1300000.0;PLN;6;761.68;4;0;0;0;0;1;0;0;120;5;wooden;2009;wilanów królewski;groundfloor;2;10833.333333333334;10.0;10.0;10.0;10.0;10.0;55566324
mokotów;warszawa;czerniaków;zwierzyniecka;.;missing;block;to_completion;.;0;0;0;0;0;0;0;1;0;1;0;0;1;0;0;0;0;0;missing;52.2090819;https://www.otodom.pl/oferta/mieszkanie-62-50-m-warszawa-ID3Lpe0.html;21.0503852;secondary;1;1;0;True;cooperative_ownership_with_mortgage_register;173;530000.0;PLN;3;920.0;3;0;0;0;0;0;0;0;62;3;plastic;1981;czerniaków;9;15;8548.387096774193;38.0;38.0;38.0;38.0;38.0;55627392
wola;warszawa;odolany;.;.;missing;apartment;to_completion;.;0;0;0;0;0;0;0;1;1;0;1;0;1;0;0;0;0;0;urban;52.2279436;https://www.otodom.pl/oferta/mieszkanie-44-50-m-warszawa-ID3L9RC.html;20.9586224;secondary;0;0;0;False;full_ownership;160;475500.0;PLN;6;.;2;0;0;1;1;0;0;0;44;6;missing;2017;odolany;5;12;10806.818181818182;2.0;2.0;2.0;2.0;2.0;55568344
bia³o³êka;warszawa;.;.;.;missing;missing;missing;.;0;0;0;0;0;0;0;0;0;0;0;0;0;0;0;0;0;0;missing;52.32899;https://www.otodom.pl/oferta/ciche-mieszkanie-pilnie-ID3L4Vk.html;21.00768;secondary;0;0;0;False;full_ownership;247;415000.0;PLN;7;700.0;3;0;0;0;0;0;0;0;70;7;missing;2000;bia³o³êka;2;4;5928.571428571428;19.0;19.0;19.0;19.0;19.0;55549416
praga po³udnie;warszawa;olszynka grochowska;osowska;2018-07-31;missing;missing;missing;.;0;0;0;0;0;0;0;0;0;0;0;0;0;0;0;0;0;0;missing;52.24275;https://www.otodom.pl/oferta/wyposazona-kawalerka-praga-poludnie-19m2-ID3Jct2.html;21.11247;secondary;0;0;0;True;missing;2396;216000.0;PLN;15;.;1;0;0;0;0;0;0;0;19;7;missing;1995;olszynka grochowska;1;4;11368.421052631578;24.0;24.0;24.0;24.0;24.0;55101696
praga pó³noc;warszawa;.;.;.;other;apartment;to_completion;.;0;0;0;0;0;0;0;1;0;0;1;0;1;0;0;0;0;0;urban;52.2633;https://www.otodom.pl/oferta/widne-mieszkanie-doskonala-komunikacja-ID3KvxK.html;21.02832;primary;0;0;0;False;full_ownership;264;375927.0;PLN;15;.;2;0;0;1;1;1;0;0;42;15;missing;.;praga pó³noc;1;5;8950.642857142857;1.0;1.0;1.0;1.0;1.0;55417196
ursus;warszawa;skorosze;skoroszewska;.;missing;block;ready_to_use;.;0;0;0;0;0;0;0;0;0;0;0;0;1;0;0;0;0;0;missing;52.1897496;https://www.otodom.pl/oferta/grunt-uregulowany-mozliwy-kredyt-ID3L0HC.html;20.899275;secondary;1;1;0;True;full_ownership;309;395000.0;PLN;8;570.0;2;0;0;0;0;0;0;0;56;2;wooden;2001;skorosze;groundfloor;6;7053.571428571428;18.0;18.0;18.0;18.0;18.0;55533128
bemowo;warszawa;chrzanów;chrzanów;2019-04-01;breezeblock;block;to_completion;.;0;0;0;0;0;0;0;1;0;0;1;0;1;0;0;0;0;1;urban;52.21790014665359;https://www.otodom.pl/oferta/ostatnie-3pokoje-w-super-cenie-48-94m2-balkon-b14-ID3Kofe.html;20.897403970794674;primary;1;1;1;False;full_ownership;350;386626.0;PLN;15;.;3;0;1;0;1;0;0;0;49;15;plastic;2019;chrzanów;groundfloor;3;7890.326530612245;0.0;0.0;0.0;0.0;0.0;55385296
weso³a;warszawa;stara mi³osna;.;2018-07-31;brick;row_house;missing;.;0;0;0;0;0;0;0;1;1;0;1;0;0;0;0;0;0;0;gas;52.2329397;https://www.otodom.pl/oferta/okazja-klimatyczne-mieszkanie-z-kominkiem-ID3Iie8.html;21.2251979;secondary;0;0;0;False;full_ownership;502;460000.0;PLN;15;100.0;3;0;0;1;1;0;0;0;88;5;plastic;2004;stara mi³osna;2;2;5227.272727272727;15.0;15.0;15.0;15.0;15.0;54885508
bia³o³êka;warszawa;.;.;.;missing;missing;missing;.;0;0;0;0;0;0;0;1;0;0;0;0;1;1;0;0;0;1;urban;52.32899;https://www.otodom.pl/oferta/mieszkanie-28-20-m-warszawa-ID3JVzG.html;21.00768;primary;0;0;0;False;full_ownership;359;229600.0;PLN;15;.;1;0;0;0;0;0;0;0;28;6;missing;2019;bia³o³êka;1;3;8200.0;0.0;0.0;0.0;0.0;0.0;55278932
wola;warszawa;odolany;juliusza konstantego ordona;.;missing;block;to_completion;.;0;0;0;0;0;0;0;1;0;0;0;0;1;0;0;0;0;0;urban;52.23338;https://www.otodom.pl/oferta/od-dewelopera-nowoczesne-osiedle-dobra-lokalizacja-ID3IW08.html;20.95718;primary;1;1;0;False;full_ownership;419;661668.0;PLN;15;.;4;0;0;0;0;1;0;0;79;15;wooden;2021;odolany;1;12;8375.54430379747;0.0;0.0;0.0;0.0;0.0;55034556
wilanów;warszawa;.;.;.;other;apartment;to_completion;.;0;0;0;0;0;0;0;1;0;0;1;0;1;0;0;0;0;0;missing;52.15613;https://www.otodom.pl/oferta/bliski-termin-oddania-przesronne-mieszkanie-ID3Lnog.html;21.11163;primary;0;0;0;False;missing;107;718165.0;PLN;3;.;4;0;1;1;1;1;0;0;79;3;missing;.;wilanów;groundfloor;4;9090.696202531646;1.0;1.0;1.0;1.0;1.0;55620340
bielany;warszawa;.;.;.;missing;missing;missing;.;0;0;0;0;0;0;0;0;0;0;0;0;0;0;0;0;0;0;missing;52.29332;https://www.otodom.pl/oferta/mieszkanie-75-70-m-warszawa-ID3KOmE.html;20.92866;secondary;0;0;0;False;missing;231;576000.0;PLN;12;.;2;0;0;0;0;0;0;0;76;12;missing;.;bielany;4;4;7578.9473684210525;.;23.692307692307693;12.0;18.0;33.0;55485700
targówek;warszawa;bródno;krasiczyñska;.;concrete_plate;block;ready_to_use;.;0;0;0;0;0;0;0;1;1;0;0;0;1;0;0;0;0;0;missing;52.2957272;https://www.otodom.pl/oferta/dwa-pokoje-po-generalnym-remoncie-z-balkonem-ID3KszC.html;21.0455911;secondary;1;1;0;True;full_ownership;490;330000.0;PLN;15;350.0;2;0;0;0;0;0;0;0;38;15;plastic;1973;bródno;10;10;8684.21052631579;46.0;46.0;46.0;46.0;46.0;55401936
œródmieœcie;warszawa;œródmieœcie pó³nocne;z³ota;2017-12-31;other;apartment;missing;.;0;0;0;0;0;0;1;0;1;0;1;0;1;0;0;0;0;0;urban;52.231303423128;https://www.otodom.pl/oferta/michal-lech-zapraszam-do-zlotej-44-ID3BT0M.html;21.002556168509;primary;1;1;1;True;full_ownership;3401;4959000.0;PLN;15;22.0;3;1;1;0;1;1;0;0;150;1;aluminium;2017;œródmieœcie pó³nocne;gt10;52;33060.0;2.0;2.0;2.0;2.0;2.0;53358612
wola;warszawa;odolany;jana kazimierza;2018-09-07;reinforced_concrete;apartment;ready_to_use;.;1;1;1;0;0;0;0;1;0;1;1;0;1;0;0;0;0;0;urban;52.22510819968775;https://www.otodom.pl/oferta/2015-r-3-pokoje-ul-j-kazimierza-dobra-wola-ID3LqAv.html;20.948855745043943;secondary;1;1;0;True;full_ownership;290;798000.0;PLN;3;.;3;0;1;0;1;1;0;0;72;3;wooden;2015;odolany;5;6;11083.333333333334;4.0;4.0;4.0;4.0;4.0;55632632
bia³o³êka;warszawa;kobia³ka;zdziarska;.;other;apartment;to_completion;.;0;0;0;0;0;0;0;1;0;0;1;0;1;0;0;0;0;1;missing;52.32899;https://www.otodom.pl/oferta/3-pokoje-w-fantastycznej-cenie-336-tys-zl-ID3IKQs.html;21.00768;primary;0;0;0;True;full_ownership;915;336475.0;PLN;15;.;3;0;1;1;1;1;0;0;55;9;missing;2018;kobia³ka;2;2;6117.727272727273;1.0;1.0;1.0;1.0;1.0;54995516
wilanów;warszawa;.;.;.;concrete;apartment;ready_to_use;.;1;1;1;1;1;1;1;1;0;1;1;0;1;0;0;0;0;0;urban;52.15613;https://www.otodom.pl/oferta/apartament-wilanow-kazachska-106m-3p-lux-ID3KeSk.html;21.11163;secondary;1;1;1;False;missing;399;1295000.0;PLN;15;.;3;0;1;1;1;1;0;0;106;5;aluminium;.;wilanów;2;4;12216.981132075472;.;2.0;1.0;2.0;3.0;55349280
mokotów;warszawa;stegny;.;.;missing;apartment;missing;.;0;0;0;0;0;0;0;1;0;0;1;0;1;0;0;0;0;0;urban;52.18125;https://www.otodom.pl/oferta/eleganckie-trzypokojowe-na-os-azurowych-okiennic-ID3I78g.html;21.0455;secondary;1;1;0;False;full_ownership;582;1120000.0;PLN;15;850.0;3;0;0;0;0;0;0;0;87;5;wooden;2015;stegny;5;6;12873.563218390804;4.0;4.0;4.0;4.0;4.0;54842860
œródmieœcie;warszawa;œródmieœcie po³udniowe;œniadeckich;.;brick;tenement;missing;.;0;0;0;0;0;0;0;0;1;0;0;0;1;0;0;0;0;0;missing;52.23313;https://www.otodom.pl/oferta/mieszkanie-68-m-warszawa-ID3I9de.html;21.019;secondary;0;0;0;False;full_ownership;439;816000.0;PLN;15;850.0;2;0;0;0;0;0;0;0;68;15;missing;1950;œródmieœcie po³udniowe;5;6;12000.0;69.0;69.0;69.0;69.0;69.0;54850856
bia³o³êka;warszawa;tarchomin;strumykowa;.;brick;missing;missing;.;0;0;0;0;0;0;0;1;0;0;1;0;1;0;0;0;0;0;missing;52.325428;https://www.otodom.pl/oferta/bardzo-ladne-mieszkanie-z-garazem2010r-ID3KQi0.html;20.94575;secondary;0;0;0;True;full_ownership;597;296000.0;PLN;11;.;2;0;0;0;0;0;0;0;37;11;plastic;2010;tarchomin;1;3;8000.0;9.0;9.0;9.0;9.0;9.0;55493100
mokotów;warszawa;stary mokotów;¿aryna stanis³awa;.;other;block;ready_to_use;.;0;0;0;0;0;0;0;0;0;0;0;0;0;0;0;0;0;0;missing;52.193000762939;https://www.otodom.pl/oferta/luksusowy-czteropokojowy-apartament-ID3KjiY.html;20.993;secondary;0;0;0;False;missing;309;1815000.0;PLN;15;.;4;0;0;0;0;0;0;0;117;7;missing;2004;stary mokotów;basement;missing;15512.820512820514;15.0;15.0;15.0;15.0;15.0;55366308
bia³o³êka;warszawa;.;.;.;missing;missing;missing;.;0;0;0;0;0;0;0;0;0;0;0;0;1;0;0;0;0;0;missing;52.303412548348;https://www.otodom.pl/oferta/mieszkanie-63-97-m-warszawa-ID3HVdm.html;20.991643642358;primary;0;0;0;False;missing;209;403680.0;PLN;15;.;3;0;0;0;0;0;0;0;64;2;missing;2019;bia³o³êka;2;5;6307.5;0.0;0.0;0.0;0.0;0.0;54800892
rembertów;warszawa;nowy rembertów;zes³añców polskich;.;other;row_house;missing;.;0;0;0;0;0;0;0;0;0;0;0;0;0;0;0;0;0;0;missing;52.271336;https://www.otodom.pl/oferta/bezczynszowe-mieszkanie-stary-rembertow-ogrodek-ID3KSS4.html;21.147215;secondary;0;0;0;True;missing;242;779000.0;PLN;11;.;6;0;0;0;0;0;0;0;137;11;missing;2006;nowy rembertów;2;3;5686.131386861314;13.0;13.0;13.0;13.0;13.0;55503024
bia³o³êka;warszawa;nowodwory;hanki ordonówny;.;brick;block;ready_to_use;.;0;0;0;0;0;0;0;1;0;0;0;0;1;0;0;0;0;1;urban;52.3321086;https://www.otodom.pl/oferta/atrakcyjnie-polozone-4-pokojowe-na-bialolece-ID3KxSc.html;20.9463932;secondary;0;1;0;True;full_ownership;350;608000.0;PLN;15;.;4;0;0;0;0;1;0;0;86;2;plastic;2006;nowodwory;3;4;7069.767441860465;13.0;13.0;13.0;13.0;13.0;55422308
wola;warszawa;.;.;.;missing;missing;missing;.;0;0;0;0;0;0;0;0;0;0;0;0;0;0;0;0;0;0;missing;52.23338;https://www.otodom.pl/oferta/mieszkanie-74-52-m-warszawa-ID3Kp7C.html;20.95718;secondary;0;0;0;False;missing;317;699000.0;PLN;15;.;3;0;0;0;0;0;0;0;75;15;missing;.;wola;1;4;9320.0;.;19.773722627737225;45.0;3.0;1.0;55388668
bia³o³êka;warszawa;kobia³ka;mochtyñska;2018-07-21;breezeblock;block;to_completion;.;0;0;0;0;0;0;0;0;0;0;1;0;1;1;0;1;0;0;gas;52.32899;https://www.otodom.pl/oferta/64m-loggia-13m-zakup-besposrednio-od-dewelopera-ID3IBB2.html;21.00768;primary;1;1;1;True;full_ownership;435;338448.0;PLN;15;354.0;3;0;1;1;1;1;0;0;64;11;plastic;2019;kobia³ka;1;3;5288.25;0.0;0.0;0.0;0.0;0.0;54959964
targówek;warszawa;targówek mieszkaniowy;smoleñska;2018-08-16;missing;block;missing;.;0;0;0;0;0;0;0;1;1;0;1;0;0;0;0;0;0;0;urban;52.26786;https://www.otodom.pl/oferta/trzypokojowe-mieszkanie-na-targowku-ID3J3dy.html;21.04901;secondary;1;1;1;True;full_ownership;488;420000.0;PLN;15;.;3;0;0;0;1;0;0;0;61;12;missing;1980;targówek mieszkaniowy;2;4;6885.245901639344;39.0;39.0;39.0;39.0;39.0;55066140
wola;warszawa;ko³o;górczewska;.;missing;block;missing;.;0;0;0;0;0;0;0;0;0;0;0;0;0;0;0;0;0;0;missing;52.2414401;https://www.otodom.pl/oferta/3-pokoje-z-duzym-balkonem-bemowo-wlasnosc-z-kw-ID3KdNm.html;20.9115313;secondary;0;0;0;True;missing;401;551000.0;PLN;15;592.0;3;0;0;0;0;0;0;0;62;15;missing;2007;ko³o;8;12;8887.09677419355;12.0;12.0;12.0;12.0;12.0;55345128
ursynów;warszawa;stary imielin;indiry gandhi;.;missing;apartment;ready_to_use;.;0;0;0;0;0;0;0;0;0;0;0;0;1;0;0;0;0;1;urban;52.1443517;https://www.otodom.pl/oferta/penthouse-150m2-ursynow-nowoczesny-taras-45m2-ID3Eohq.html;21.0349855;secondary;1;1;0;True;full_ownership;2675;1725000.0;PLN;15;.;5;0;0;0;0;1;0;0;139;5;aluminium;2005;stary imielin;7;7;12410.071942446044;14.0;14.0;14.0;14.0;14.0;53955464
mokotów;warszawa;wierzbno;odyñca antoniego edwarda;.;missing;block;to_completion;.;0;0;0;0;0;0;0;0;1;1;0;0;1;0;0;0;0;0;missing;52.1959902;https://www.otodom.pl/oferta/mieszkanie-59-74-m-warszawa-ID3Lc5G.html;21.013328;secondary;1;1;0;False;full_ownership;170;530000.0;PLN;5;550.0;2;0;0;0;0;0;0;0;60;5;plastic;1957;wierzbno;3;5;8833.333333333334;62.0;62.0;62.0;62.0;62.0;55576904
targówek;warszawa;bródno-podgrodzie;g³êbocka;.;brick;block;to_completion;.;0;0;0;0;0;0;0;1;0;0;0;0;1;0;0;0;0;0;urban;52.3104859;https://www.otodom.pl/oferta/45m2-przestronne-pokoje-salon-25m2-tylko-5600m2-ID3kFN0.html;21.0626565;primary;1;1;1;True;full_ownership;3539;252000.0;PLN;15;.;2;0;1;1;1;1;0;0;45;7;plastic;2017;bródno-podgrodzie;1;2;5600.0;2.0;2.0;2.0;2.0;2.0;49256210
w³ochy;warszawa;.;"""""""""""""""""""""""""""""""batalionu ak """"""""""""""""""""""""""""""""w³ochy""""""""""""""""""""""""""""""""""""""""""""""""""""""""""""""";.;other;block;missing;.;0;0;0;0;0;0;0;1;1;0;1;0;1;0;0;0;1;0;urban;52.1990465;https://www.otodom.pl/oferta/rodzinne-przestronne-we-wlochach-garaz-balkon-ID3G0HC.html;20.907484;secondary;1;1;0;False;full_ownership;1119;645000.0;PLN;15;700.0;4;0;1;1;1;1;0;0;109;4;wooden;2000;w³ochy;6;6;5917.431192660551;19.0;19.0;19.0;19.0;19.0;54341488
bia³o³êka;warszawa;¿erañ;modliñska;.;missing;missing;to_completion;.;0;0;0;0;0;0;0;0;0;0;0;0;0;0;0;0;0;0;urban;52.3060842;https://www.otodom.pl/oferta/widna-kuchnia-20-minut-do-centrum-3-pokoje-ID3HYcU.html;20.98914224;primary;1;1;1;True;full_ownership;247;420000.0;PLN;15;.;3;0;0;0;0;0;0;0;65;1;missing;2019;¿erañ;1;5;6461.538461538462;0.0;0.0;0.0;0.0;0.0;54808552
praga po³udnie;warszawa;.;.;.;missing;block;to_renovation;.;0;0;1;1;0;0;0;0;1;0;0;1;0;0;0;0;0;0;urban;52.24168;https://www.otodom.pl/oferta/mieszkanie-na-grochowie-praga-poludnie-ID3J6Pi.html;21.08406;secondary;1;1;0;False;full_ownership;523;317000.0;PLN;15;.;1;0;0;0;1;0;0;0;35;10;plastic;1951;praga po³udnie;groundfloor;2;9057.142857142857;68.0;68.0;68.0;68.0;68.0;55080012
praga pó³noc;warszawa;nowa praga;wileñska;.;missing;missing;missing;.;0;0;0;0;0;0;0;0;0;0;0;0;0;0;0;0;0;0;missing;52.2581206;https://www.otodom.pl/oferta/apartament-z-ogrodkiem-0-prowizji-0-pcc-ID3KvKs.html;21.0401514;primary;0;0;0;True;missing;292;441400.0;PLN;15;.;2;0;0;0;0;0;0;0;51;2;missing;2021;nowa praga;groundfloor;8;8654.901960784313;0.0;0.0;0.0;0.0;0.0;55417984
wola;warszawa;ko³o;ksiêcia janusza;.;missing;missing;missing;.;0;0;0;0;0;0;0;0;0;0;0;0;1;0;0;0;0;0;missing;52.238022911668;https://www.otodom.pl/oferta/przy-metrze-ksiecia-janusza-widna-kuchnia-ID3KFmA.html;20.94494207254;secondary;0;0;0;False;missing;778;375000.0;PLN;14;.;2;0;0;0;0;0;0;0;42;12;missing;1960;ko³o;2;3;8928.57142857143;59.0;59.0;59.0;59.0;59.0;55451100
